location_id,location,city_id,lat,lon
1086,kelambakkam,1,12.8012825,80.1991871
2404,tondiarpet,1,13.1275202,80.2819242
1177,kundrathur,1,13.0306501,80.1529176
1672,pallavaram,1,12.9675742,80.1520504
2173,sholinganallur,1,12.9174426,80.2164902
1637,omr,1,12.8886985,80.2272652
138,anna nagar,1,13.0872004,80.2164421
424,chengalpattu,1,12.9521755,80.1860309
2227,siruseri,1,12.8012825,80.1991871
1665,padur,1,12.8054706,80.2247264
2483,velachery,1,12.9801655,80.2228506
1334,mangadu,1,13.0209113,80.1259365
1276,madhavaram,1,13.1429313,80.2325166
2356,thazhambur,1,12.8726076,80.2061843
734,guduvancherry,1,12.8768075,79.6160108
1516,navalur,1,12.8445841,80.2264618
1674,pallikaranai,1,12.9304748,80.2077692
1722,perumbakkam,1,12.9050095,80.1968629
2333,tambaram west tambaram,1,12.9256549,80.10437
736,guindy,1,13.0086685,80.2126063
577,east coast road,1,12.9779371,80.2590918
2372,thirumazhisai,1,13.004405329120878,80.19845550357142
208,avadi,1,13.0403526,80.129575
89,alamathi,1,13.004405329120878,80.19845550357142
2063,sanneerkuppam,1,13.004405329120878,80.19845550357142
1153,koyambedu,1,13.0734496,80.1948363
1389,medavakkam,1,12.9229928,80.1882897
1113,kodambakkam,1,13.049207,80.2242829
1725,perungudi,1,12.9710239,80.2418051
2124,sevvapet,1,13.1293328,79.9702214
1440,mount road,1,13.0650772,80.2665696
1076,kattupakkam,1,13.0430617,80.122765
1344,mannivakkam,1,13.004405329120878,80.19845550357142
1724,perungalathur,1,12.9256549,80.10437
1426,mogappair east,1,13.0835142,80.1840779
1462,mylapore,1,13.0316473,80.2700166
579,east tambaram,1,12.9303475,80.1324472
218,ayanavaram,1,13.0946157,80.23541
121,anakaputhur,1,12.9722109,80.1393765
2519,villivakkam,1,13.1125875,80.2081378
245,balaji nagar perungalathur,1,13.004405329120878,80.19845550357142
1675,pammal,1,13.0347902,80.1994677
457,choolaimedu,1,13.0666287,80.2305198
176,arumbakkam,1,13.074371,80.2081312
733,guduvancheri,1,12.8439997,80.0603546
217,ayanambakkam,1,13.004405329120878,80.19845550357142
1768,porur,1,13.0320131,80.158304
459,chromepet,1,12.9575007,80.1435066
1104,kilpauk,1,13.0832149,80.2379864
665,gerugambakkam,1,13.0152345,80.1368538
426,cheran nagar,1,13.004405329120878,80.19845550357142
139,anna nagar west,1,13.0940791,80.1922978
1324,mambakkam,1,12.9040038,80.1871795
84,akeeswarer colony,1,13.004405329120878,80.19845550357142
1072,katida thozilalar nagar,1,13.004405329120878,80.19845550357142
2452,valasaravakkam,1,13.0410164,80.1721682
1819,ra puram,1,13.0250377,80.2507707
1271,madambakkam,1,13.004405329120878,80.19845550357142
59,adyar,1,13.00645,80.2577791
900,iyyappanthangal,1,13.004405329120878,80.19845550357142
1425,mogappair,1,13.0835142,80.1840779
1502,nanganallur,1,12.9801242,80.184902
1564,new perungalathur,1,12.9216163,80.0935766
720,gowriwakkam,1,13.004405329120878,80.19845550357142
1328,manapakkam,1,13.0147531,80.1744935
1112,kk nagar west,1,13.0441391,80.1933467
1657,padapai,1,13.004405329120878,80.19845550357142
1399,melakottaiyur,1,13.004405329120878,80.19845550357142
126,anandam nagar,1,13.004405329120878,80.19845550357142
1282,madipakkam,1,12.9611348,80.2001292
429,chettipunyam,1,13.004405329120878,80.19845550357142
1325,mambakkam sriperumbudur,1,13.004405329120878,80.19845550357142
1956,royapettah,1,13.0554718,80.2639706
570,durga nagar tambaram,1,12.9221546,80.1551536
722,grand southern trunk road,1,13.0525036,80.2513105
1537,nehru nagar chromepet,1,13.004405329120878,80.19845550357142
1064,karapakkam,1,12.9117073,80.2277203
1201,lakshmipuram,1,13.0469918,80.2622445
886,injambakkam,1,12.9189367,80.251295
1085,keerapakkam,1,13.004405329120878,80.19845550357142
2218,singaperumal koil,1,13.004405329120878,80.19845550357142
902,j j nagar mogappair east,1,13.004405329120878,80.19845550357142
2045,saligramam,1,13.0583406,80.1985327
1448,mudichur,1,12.9426167,80.2070272
2381,thiruvanmiyur,1,12.9858948,80.2644215
2498,vettuvankeni,1,12.9496587,80.254723
1880,ramapuram,1,13.0298609,80.1780333
2375,thirumullaivoyal,1,13.1309288,80.131225
1772,pozhichalur,1,12.9905297,80.1440498
90,alandur,1,13.0028216,80.1719186
2387,thorapakkamm,1,13.004405329120878,80.19845550357142
1542,nellikuppam road,1,13.004405329120878,80.19845550357142
220,ayyapakkam,1,13.004405329120878,80.19845550357142
1554,nesapakkam,1,13.0336193,80.1873092
2460,vandalur,1,12.967607,80.2176722
428,chetpet,1,13.0717448,80.2437973
1858,rajakilpakkam,1,13.004405329120878,80.19845550357142
111,ambattur,1,13.1193746,80.1507648
158,arcot road,1,13.0418593,80.1764131
1127,kolapakkam - vandalur-kelambakkam road,1,13.004405329120878,80.19845550357142
420,chembarambakkam,1,13.016769,80.1367942
1305,mahindra world city,1,13.004405329120878,80.19845550357142
1769,potheri,1,13.004405329120878,80.19845550357142
2034,saidapet,1,13.020817,80.2239536
583,egattur,1,13.004405329120878,80.19845550357142
104,alwarpet,1,13.0338602,80.2545491
923,jawahar nagar perambur,1,13.004405329120878,80.19845550357142
1641,oragadam,1,13.130791,80.1529145
1172,kumaran colony vadapalani,1,13.004405329120878,80.19845550357142
2113,selaiyur,1,13.004405329120878,80.19845550357142
1402,metro nagar,1,13.0789409,80.2251326
1103,kilambakkam,1,13.004405329120878,80.19845550357142
2602,zone 11 padur,1,13.004405329120878,80.19845550357142
1695,paruthippattu,1,13.004405329120878,80.19845550357142
584,egmore,1,13.0728321,80.2576906
2230,sivasakthi nagar annanur,1,13.004405329120878,80.19845550357142
270,banu nagar,1,13.1336747,80.1591518
2228,sithalapakkam,1,12.8917047,80.1851133
2436,urapakkam,1,13.004405329120878,80.19845550357142
2528,vinayakapuram lakshmipuram,1,13.004405329120878,80.19845550357142
1587,nungambakkam,1,13.0620626,80.240487
1149,kovilpathagai poompozhil nagar,1,13.004405329120878,80.19845550357142
219,ayappakkam,1,13.004405329120878,80.19845550357142
2566,west mambalam,1,13.0428296,80.2270184
2067,santhosapuram,1,12.9100538,80.1727961
185,ashok nagar,1,13.0400731,80.2159247
71,ags colony extension,1,13.004405329120878,80.19845550357142
1148,kovilambakkam,1,12.9392427,80.1825888
1126,kolapakkam,1,13.0097074,80.1528994
2004,s kolathur,1,12.9427371,80.1966166
1427,mogappair west ambattur industrial estate,1,13.004405329120878,80.19845550357142
1894,rattinamangalam,1,13.004405329120878,80.19845550357142
2386,thoraipakkam,1,12.9490358,80.240753
1647,ottiambakkam,1,12.887144,80.1842357
1716,perambur,1,13.1121242,80.245022
1756,poes garden,1,13.0437065,80.253316
2549,vyasarpadi,1,13.1169726,80.2571242
1686,paraniputhur,1,13.0225293,80.128496
376,burkit road,1,13.0344092,80.2352216
43,adayalampattu,1,13.076278,80.1646861
140,anna nagar west extension,1,13.004405329120878,80.19845550357142
1723,perumbakkam main road,1,12.8796441,80.2059126
2444,vadapalani,1,13.0509304,80.2120661
142,annai sathya nagar koyambedu,1,13.004405329120878,80.19845550357142
2321,swaminathan nagar kottivakkam,1,12.9713518,80.2543421
1162,kuberan nagar madipakkam,1,12.9574931,80.2062346
2564,west balaji nagar,1,13.1319368,80.1652464
64,agaram,1,13.1158603,80.2300407
1859,rajalakshmi nagar velachery,1,12.9852883,80.2187428
1531,neelankarai,1,12.9454955,80.2574692
2362,the marvel tower indira nagar adyar,1,13.004405329120878,80.19845550357142
141,annai anjugam nagar urapakkam,1,13.004405329120878,80.19845550357142
449,chitlapakkam,1,13.004405329120878,80.19845550357142
1144,kottivakkam,1,12.9705053,80.2615033
1284,madurapakkam,1,13.004405329120878,80.19845550357142
2116,semmancheri,1,12.8751861,80.2106332
1138,korattur,1,13.1115484,80.1846272
2066,santhome,1,13.0298372,80.275738
1816,puzhal,1,13.1636492,80.2038067
1556,netaji nagar thiruvanmiyur,1,13.004405329120878,80.19845550357142
2327,t nagar,1,13.0294483,80.2309064
85,akkarai,1,13.004405329120878,80.19845550357142
903,j nagar,1,12.8881885,80.2484508
2331,tambaram,1,12.920695,80.1968278
991,kalakshetra colony,1,12.9936352,80.266422
1543,nelson manickam road,1,13.0625412,80.2360623
1658,padappai,1,13.004405329120878,80.19845550357142
1442,mrc nagar,1,13.0196693,80.2706525
1128,kolathur,1,13.1241127,80.2046276
145,annanagar east,1,13.004405329120878,80.19845550357142
1765,poonamallee,1,13.0274366,80.1724209
1450,mugalivakkam,1,13.0205798,80.1685163
2425,ullagaram madipakkam,1,13.004405329120878,80.19845550357142
2484,velappanchavadi,1,13.004405329120878,80.19845550357142
1046,kanathur,1,12.8505026,80.2411932
1505,nanmangalam manikandan nagar,1,13.004405329120878,80.19845550357142
1492,nallambakkam,1,13.004405329120878,80.19845550357142
425,chepauk,1,13.0619312,80.280596
1717,peravallur,1,13.1113801,80.2263786
934,jeevan prakash nagar,1,13.004405329120878,80.19845550357142
1766,poonamallee high road,1,13.0675214,80.1777448
2458,vanagaram,1,13.1559944,80.1965527
1872,ram nagar velachery,1,12.9641099,80.2139123
2261,sriperumbudur,1,13.0347578,80.1559378
1501,nandivaram guduvancheri,1,13.004405329120878,80.19845550357142
1268,luz corner,1,13.0375277,80.2677619
1150,kovur,1,13.0125315,80.1211467
366,broadway george town,1,13.0886372,80.284971
1274,madhanandapuram,1,13.004405329120878,80.19845550357142
1759,ponmar,1,13.004405329120878,80.19845550357142
913,jalladianpet,1,13.004405329120878,80.19845550357142
2135,shankar nagar pammal,1,13.004405329120878,80.19845550357142
2534,virugambakkam,1,13.0475434,80.1922181
2399,tiruvottiyur,1,13.1563873,80.3005279
1414,mittanemili,1,13.004405329120878,80.19845550357142
2380,thiruvalluvar nagar thiruvanmiyur,1,13.004405329120878,80.19845550357142
1285,maduravoyal,1,13.0601732,80.1665988
1073,kattankulathur,1,13.004405329120878,80.19845550357142
1386,mcn nagar,1,12.9450971,80.2342562
2485,vengadamangalam,1,13.004405329120878,80.19845550357142
2490,venkateswara nagar velachery,1,13.004405329120878,80.19845550357142
1663,padmavathi nagar iyyappanthangal,1,13.004405329120878,80.19845550357142
1906,red hills,1,13.1649493,80.1816203
483,curzzn  villa kottivakkam,1,13.004405329120878,80.19845550357142
1553,nesamani nagar perumbakkam,1,13.004405329120878,80.19845550357142
1287,mahabalipuram,1,12.9840501,80.2523098
1807,purasaiwakkam,1,13.004405329120878,80.19845550357142
303,besant nagar,1,12.9996907,80.2682259
322,bhuvaneshwari nagar velachery,1,13.004405329120878,80.19845550357142
246,balaji nagar royapettah,1,13.004405329120878,80.19845550357142
1220,lic colony pammal,1,13.004405329120878,80.19845550357142
2491,venkatraman nagar,1,13.1014929,80.2794587
94,all stars,1,13.004405329120878,80.19845550357142
773,harrington road,1,13.0693126,80.2387634
1027,kamatchi nagar balaji nagar,1,13.004405329120878,80.19845550357142
2041,sakthi avenue,1,12.8861992,80.2460833
1339,manimangalam,1,13.004405329120878,80.19845550357142
1659,padmanabha nagar choolaimedu,1,13.004405329120878,80.19845550357142
1397,mel ayanambakkam kil ayanambakkam,1,13.004405329120878,80.19845550357142
1080,kavanur,1,13.004405329120878,80.19845550357142
1111,kk nagar,1,13.0386493,80.2052158
1145,kotturpuram,1,13.0193703,80.2435512
1053,kandigai,1,13.004405329120878,80.19845550357142
2297,sunguvarchatram,1,13.004405329120878,80.19845550357142
443,chinmaya nagar,1,13.0622141,80.1991841
2438,uthandi,1,12.8687677,80.247209
2461,vandalur rf,1,12.963553,80.2160564
1676,panaiyur,1,12.8878546,80.2451984
1327,manali new town manali,1,13.2116618,80.2771598
730,greenwind,1,13.004405329120878,80.19845550357142
1417,mkn road,1,12.9965026,80.1918132
1860,rajamannar colony,1,13.0419763,80.2005224
118,aminjikarai,1,13.0721399,80.2205453
1541,nellikuppam,1,13.004405329120878,80.19845550357142
1272,madanandapuram mugalivakkam,1,13.0235157,80.1534231
45,adhanur,1,13.004405329120878,80.19845550357142
1267,lumbini square,1,13.0881208,80.2491607
1024,kamaraj nagar thiruvanmiyur,1,12.9942424,80.2569278
2599,zamin pallavaram,1,13.004405329120878,80.19845550357142
313,bharathy nagar t nagar,1,13.004405329120878,80.19845550357142
26,abiramapuram,1,13.0304402,80.2567984
2455,vallakkottai,1,13.004405329120878,80.19845550357142
1711,peerkankaranai,1,13.004405329120878,80.19845550357142
387,cenotaph road,1,13.0332017,80.245912
1173,kumaran nagar east,1,13.004405329120878,80.19845550357142
1049,kanchipuram,1,12.8483107,79.705073
2350,thaiyur,1,13.004405329120878,80.19845550357142
1087,kelambakkam vandalur road,1,13.004405329120878,80.19845550357142
2005,s.i.s marakesh urapakkam s.i.s marakesh urapakkam,1,13.004405329120878,80.19845550357142
1552,nerkundram,1,13.0688386,80.1838987
2472,vasantham colony tambaram west,1,13.004405329120878,80.19845550357142
1513,natesan nagar velachery,1,13.004405329120878,80.19845550357142
2494,veppambaattu,1,13.004405329120878,80.19845550357142
1065,karasangal,1,12.8932781,80.0490772
1217,legend foundation ghasha,1,13.004405329120878,80.19845550357142
992,kalavakkam,1,13.004405329120878,80.19845550357142
2384,thiruvottiyur,1,13.1722287,80.3045553
2259,srinivasa nagar sikkarayapuram,1,13.004405329120878,80.19845550357142
1342,mannadi,1,13.0954465,80.2861312
2114,sembakkam,1,12.9040038,80.1871795
1333,mandaveli,1,13.0258445,80.2627877
2010,sadasiva nagar madipakkam,1,12.9651292,80.2028543
311,bharath nagar korattur,1,13.004405329120878,80.19845550357142
2445,vadaperumbakkam,1,13.1757143,80.2187732
1718,periyapalayam,1,13.004405329120878,80.19845550357142
1694,parthasarathi puram,1,13.004405329120878,80.19845550357142
458,choolaimedu high road,1,13.0666125,80.2314218
1892,rathinamangalam,1,13.004405329120878,80.19845550357142
2401,tnhb colonykorattur,1,13.004405329120878,80.19845550357142
1370,mathur,1,13.1678641,80.2436918
1814,puthur,1,13.004405329120878,80.19845550357142
1026,kamarajar nagar gandhi nagar,1,13.004405329120878,80.19845550357142
2416,trustpuram,1,13.0555649,80.2233364
444,chinna nolambur,1,13.004405329120878,80.19845550357142
2139,shanmuga nagar pozhichalur,1,13.004405329120878,80.19845550357142
1056,kangathara nagar,1,13.004405329120878,80.19845550357142
875,indira nagar selaiyur,1,13.004405329120878,80.19845550357142
2486,vengaivasal medavakkam,1,13.004405329120878,80.19845550357142
2371,thirumalai nagar annexe,1,13.004405329120878,80.19845550357142
1147,kovalam,1,12.7867576,80.2496014
1498,nandanam extension,1,13.0281859,80.2433142
1084,keelkattalai,1,12.9521755,80.1860309
2481,veerabhadra nagar,1,13.004405329120878,80.19845550357142
2369,thirumal nagar lakshmipuram,1,13.004405329120878,80.19845550357142
194,astalakshmi nagar valasaravakkam,1,13.004405329120878,80.19845550357142
1359,marg pushpadruma kalavakkam marg pushpadruma kalavakkam,1,13.004405329120878,80.19845550357142
1867,rajeshwari nagar pozhichalur,1,13.004405329120878,80.19845550357142
6,2nd block mogappair west,1,13.0880622,80.1846054
513,devi nagar cholambedu,1,13.004405329120878,80.19845550357142
1400,menambedu,1,13.1230211,80.1656093
1082,kaviarasu kannadasan nagar,1,13.1361494,80.2567716
893,irungattukottai,1,13.004405329120878,80.19845550357142
707,gopalapuram perambur,1,13.004405329120878,80.19845550357142
1761,ponniammanmedu,1,13.004405329120878,80.19845550357142
122,anan,1,13.004405329120878,80.19845550357142
2544,vr pillai,1,13.004405329120878,80.19845550357142
1047,kanathur reddykuppam,1,13.004405329120878,80.19845550357142
196,athipet,1,13.092043,80.1544514
1586,numbal,1,13.004405329120878,80.19845550357142
1619,old washermenpet,1,13.004405329120878,80.19845550357142
2563,welcome colony,1,13.1043188,80.210691
244,balaji nagar extension padmanabha nagar,1,13.004405329120878,80.19845550357142
2388,thriru v ka nagar,1,13.004405329120878,80.19845550357142
2115,sembiyam,1,13.1220126,80.2412158
1119,kodungaiyur,1,13.1327533,80.2444773
1431,moolakadai,1,13.1291684,80.2416991
1216,leelavathi nagar,1,13.004405329120878,80.19845550357142
1079,kavankarai,1,13.1700994,80.1998069
2085,sastri nagar kodungaiyur,1,13.004405329120878,80.19845550357142
1706,paventhar nagar,1,13.004405329120878,80.19845550357142
2046,saligramamvirugambakkam,1,13.004405329120878,80.19845550357142
1617,old perungalathur mudichur tambaram,1,13.004405329120878,80.19845550357142
718,govindan nagar,1,13.1076709,80.25415
1351,maraimalai nagar,1,13.018875,80.2246142
1458,muthamizh nagar pallavaram,1,13.004405329120878,80.19845550357142
738,gummidipoondi,1,13.004405329120878,80.19845550357142
1088,kellys,1,13.0828189,80.2433281
70,ags colony chromepet,1,13.004405329120878,80.19845550357142
465,clri nagar,1,12.9462109,80.2500944
2246,sowcarpet,1,13.0884967,80.2783092
2443,vada nemmeli,1,13.004405329120878,80.19845550357142
1525,nedunkundram,1,13.004405329120878,80.19845550357142
1404,mevalurkuppam,1,13.004405329120878,80.19845550357142
1456,munusamy nagar ponniammanmedu,1,13.004405329120878,80.19845550357142
1578,nirmala nivasam apartment puzhal,1,13.004405329120878,80.19845550357142
1190,labour colony pallikaranai,1,13.004405329120878,80.19845550357142
2174,sholinganallur semmancheri,1,13.004405329120878,80.19845550357142
157,arasankalani,1,13.004405329120878,80.19845550357142
186,ashok nagar west jafferkhanpet,1,13.004405329120878,80.19845550357142
2377,thiruninravur,1,13.004405329120878,80.19845550357142
1719,periyar nagar,1,13.1151671,80.223666
1565,new vellanur,1,13.004405329120878,80.19845550357142
88,alagiri puram kodambakkam,1,13.004405329120878,80.19845550357142
2348,teynampet,1,13.0443237,80.2498455
2378,thiruporur,1,12.8581117,80.2262771
1915,retteri,1,13.1412385,80.2120536
600,ennore,1,13.2258262,80.3243551
1800,pudur ambattur,1,13.1298206,80.1592132
1693,parrys,1,13.0888351,80.2903703
1740,pillaiyarpalayam,1,13.004405329120878,80.19845550357142
2226,sirukaveripakkam,1,13.004405329120878,80.19845550357142
1758,polivakkam,1,13.004405329120878,80.19845550357142
68,agraharam korattur,1,13.004405329120878,80.19845550357142
2463,varadapuram,1,13.0154212,80.2459988
175,arul nagar madhavaram milk colony,1,13.1467854,80.245762
2131,shakthi villa,1,13.004405329120878,80.19845550357142
640,ganapathipuram chromepet,1,13.004405329120878,80.19845550357142
1025,kamarajapuram sembakkam,1,13.004405329120878,80.19845550357142
1855,raja annamalai puram,1,13.0244783,80.253937
1075,kattukuppam,1,13.004405329120878,80.19845550357142
871,indira nagar,1,12.9960623,80.249716
1019,kamakoti nagar pallikaranai,1,13.004405329120878,80.19845550357142
123,anand homes,1,13.004405329120878,80.19845550357142
1707,pazhavanthangal,1,12.9883524,80.1891324
99,alpha breeze,1,13.004405329120878,80.19845550357142
0,,1,13.0836939,80.270186
2383,thiruverkadu,1,13.0983878,80.1349581
1618,old washermanpet,1,13.1122762,80.2893812
2332,tambaram velachery main road,1,13.004405329120878,80.19845550357142
1666,padur kancheepuram,1,13.004405329120878,80.19845550357142
2257,sri sai nagar,1,13.1236904,80.2014984
2118,sendur puram,1,13.004405329120878,80.19845550357142
1566,new washermanpet,1,13.1345195,80.2930011
1449,mudichur road,1,12.9750142,80.2208673
1500,nandiambakkam,1,13.004405329120878,80.19845550357142
2423,tuscany apartments college road nungambakkam,1,13.004405329120878,80.19845550357142
1873,ramaa srinivasa thoraipakkam,1,13.004405329120878,80.19845550357142
2285,subhodaya gopalakrishna rd tnagar,1,13.004405329120878,80.19845550357142
2256,sri sai gruha,1,13.004405329120878,80.19845550357142
697,golden george nagar,1,13.004405329120878,80.19845550357142
105,alwartirunagar,1,13.004405329120878,80.19845550357142
880,indu college,1,13.004405329120878,80.19845550357142
2138,shanmuga flats manikkodi srinivasan nagar,1,13.004405329120878,80.19845550357142
1059,kanniga colony nanganallur,1,12.9761607,80.1893201
2107,sector 7 kk nagar,1,13.041802,80.2026637
1818,r.e. nagarokkiyum thuraipakkam,1,13.004405329120878,80.19845550357142
1098,kg signature,1,13.1658894,80.2099893
1958,rrp,1,13.004405329120878,80.19845550357142
1760,ponneri,1,13.2370393,80.2739878
1291,mahakavi bharathi nagar,1,13.004405329120878,80.19845550357142
1060,kannikapuram pulianthope,1,13.004405329120878,80.19845550357142
1504,nanmangalam,1,12.9382161,80.1782483
227,b v nagar nanganallur,1,13.004405329120878,80.19845550357142
1720,perumalpattu,1,13.004405329120878,80.19845550357142
1721,perumalpet,1,13.0887868,80.2566885
224,ayyavoo colony,1,13.004405329120878,80.19845550357142
1656,padamanabha nagar adyar,1,13.004405329120878,80.19845550357142
1277,madhavaram milk colony,1,13.1554081,80.2425246
2400,tnhb,1,12.8874026,80.2335971
917,janakiraman colony kolathur,1,13.004405329120878,80.19845550357142
907,jafferkhanpet,1,13.0299401,80.2056195
1052,kandhanchavadi,1,13.004405329120878,80.19845550357142
1140,kosapet,1,13.0939346,80.2547909
1555,netaji nagar thirumullaivoyal,1,13.004405329120878,80.19845550357142
1350,mappedu,1,13.004405329120878,80.19845550357142
1757,polachery,1,13.004405329120878,80.19845550357142
2457,valmiki nagar,1,12.9804404,80.2645577
2314,surya nagar medavakkam,1,13.004405329120878,80.19845550357142
874,indira nagar manapakkam,1,13.004405329120878,80.19845550357142
1869,rajiv nagar perungudi,1,12.9787088,80.2525443
1823,radha nagar chromepet,1,13.004405329120878,80.19845550357142
1070,kasturba nagar adyar,1,13.0038682,80.2485192
2112,seevaram,1,12.9531994,80.240974
2471,vasantham colony anna nagar,1,13.004405329120878,80.19845550357142
1582,nolambur,1,13.0747182,80.1682206
1874,ramachandra nagar kolapakkam,1,13.004405329120878,80.19845550357142
2340,teachers colony kolathur,1,13.004405329120878,80.19845550357142
1705,pattipulam,1,13.004405329120878,80.19845550357142
1856,rajaji nagar villivakkam,1,13.1115156,80.2116057
1202,lakshmipuram radhakrishnan nagar,1,13.004405329120878,80.19845550357142
1813,puthagaram korattur,1,13.004405329120878,80.19845550357142
674,gnanamurthi nagar,1,13.004405329120878,80.19845550357142
766,hanuman colony,1,16.7667014,81.6563403
1544,nemili,1,13.004405329120878,80.19845550357142
2379,thiruvallur,1,13.1123034,80.1471697
1673,pallavaram kundrathur road,1,13.004405329120878,80.19845550357142
1083,kayarambedu,1,13.004405329120878,80.19845550357142
706,gopalapuram,1,13.0497324,80.2582028
594,elango nagar virugambakkam,1,13.0525853,80.1921188
2464,varadharajapuram,1,12.9275987,80.2057473
96,allapakkam porur,1,13.004405329120878,80.19845550357142
1067,karnan street mogappair west,1,13.004405329120878,80.19845550357142
990,kaladipet,1,13.1515971,80.2987772
892,irrandamkattalai,1,13.004405329120878,80.19845550357142
144,annai sivagami nagar,1,13.004405329120878,80.19845550357142
2254,sri ayyappa nagar stage ii chinmaya nagar extension,1,13.004405329120878,80.19845550357142
2313,surapet main road,1,13.140255,80.2020724
865,iit colony,1,12.9383611,80.2086821
1671,pallavan nagar injambakkam,1,13.004405329120878,80.19845550357142
174,arul nagar layout,1,13.004405329120878,80.19845550357142
996,kallikuppam,1,13.13207,80.1717346
2042,sakthivel nagar puzhal,1,13.004405329120878,80.19845550357142
2414,triplicane,1,13.0604285,80.2750704
2543,voc nagar pammal,1,13.004405329120878,80.19845550357142
1310,malayambakkam,1,13.004405329120878,80.19845550357142
2346,telephone nagar,1,12.9625626,80.2342907
2108,sector 8 kk nagar,1,13.040186,80.1976881
2119,senthil nagar kolathur,1,13.1216887,80.2039496
2568,west saidapet,1,13.0252576,80.2204237
2448,vaigai nagar urapakkam,1,13.004405329120878,80.19845550357142
1200,lakshmi nagar porur,1,13.004405329120878,80.19845550357142
1283,madura madanan kuppam,1,13.004405329120878,80.19845550357142
735,guduvancherry kayarambedu junction,1,13.004405329120878,80.19845550357142
494,dasaratha puram,1,13.004405329120878,80.19845550357142
1023,kamaraj nagar avadi,1,13.004405329120878,80.19845550357142
2374,thirumudivakkam,1,13.004405329120878,80.19845550357142
2207,sikkarayapuram,1,13.004405329120878,80.19845550357142
972,k.k.nagar,1,13.0407235,80.1992108
2322,swamy nagar mudichur,1,13.004405329120878,80.19845550357142
1801,pulianthope,1,13.1003849,80.2683122
2061,sankarapuram sithalapakkam,1,13.004405329120878,80.19845550357142
2382,thiruvengada nagar,1,13.1173939,80.1452698
1118,kodipallam,1,13.004405329120878,80.19845550357142
2385,thiruvottiyur high road,1,13.004405329120878,80.19845550357142
195,athanancherry,1,13.004405329120878,80.19845550357142
1435,morai,1,13.004405329120878,80.19845550357142
61,af builders,1,12.8833165,80.2486941
119,ammanambakkam,1,13.004405329120878,80.19845550357142
143,annai sathya nagar ramapuram,1,13.004405329120878,80.19845550357142
664,general kumaramangalam colony kolathur,1,13.004405329120878,80.19845550357142
2398,tirutani,1,13.004405329120878,80.19845550357142
942,jj volly ball stadium,1,13.004405329120878,80.19845550357142
1715,perambakkam,1,13.004405329120878,80.19845550357142
1664,padmavathy nagar velachery,1,13.004405329120878,80.19845550357142
1403,mettukuppam thoraipakkam,1,13.004405329120878,80.19845550357142
2493,vepampattu,1,13.004405329120878,80.19845550357142
2495,veppampattu,1,13.125886,80.0101118
1471,nadukuthagai,1,13.004405329120878,80.19845550357142
1876,ramamurthy avenue kolapakkam,1,13.011885,80.1569298
2376,thiruneermalai,1,12.9454304,80.1186599
610,ever green  vengambakam,1,13.004405329120878,80.19845550357142
1178,kunnathur,1,13.004405329120878,80.19845550357142
1826,raghavan nagar kodungaiyur,1,13.004405329120878,80.19845550357142
920,jaswant nagar,1,13.004405329120878,80.19845550357142
2396,tiru vi ka nagar perambur,1,13.004405329120878,80.19845550357142
1161,kuberan nagar extention madipakkam,1,13.004405329120878,80.19845550357142
2402,tolgate sathumanagar,1,13.004405329120878,80.19845550357142
1398,melakondaiyur,1,13.004405329120878,80.19845550357142
647,gangai nagar urapakkam,1,13.004405329120878,80.19845550357142
2255,sri kapaleeswarar nagar,1,13.004405329120878,80.19845550357142
393,chambers colony,1,13.0705726,80.2239882
32,adambakkam,1,12.9822215,80.209121
2572,whitefield,0,12.9963995,77.7614229
834,hoskote,0,13.0318443,77.7618779
2589,yelahanka,0,13.1006982,77.5963454
909,jakkur,0,13.0784743,77.6068938
232,bagalur main road,0,13.0887495,77.6547635
904,j p nagar,0,12.9109539,77.5978198
2077,sarjapur road,0,12.924563,77.638258
267,bannerghatta main road,0,12.7177146,77.6874121
595,electronic city,0,12.8487599,77.648253
1613,old madras road,0,12.9742131,77.6239391
508,devanahalli,0,13.2483502,77.7134377
373,budigere cross,0,13.0462134,77.7504125
2143,shanti nagar,0,12.9555367,77.5924278
1726,phase 1 electronics city,0,12.844773,77.6605993
2078,sarjapura,0,12.8600866,77.7861352
761,hal old airport road,0,12.9614888,77.6357865
795,hennur main road,0,13.0161182,77.6292879
1286,magadi main road,0,12.9836286,77.5540526
233,bagaluru,0,13.1403482,77.671269
1861,rajanukunte,0,13.1691299,77.5599986
840,hsr layout,0,12.9116225,77.6388622
1677,panathur,0,12.9351457,77.7047541
200,attibele,0,12.7751249,77.7709216
837,hosur road,0,12.89339,77.6374009
2466,varthur,0,12.9406508,77.746988
1352,marathahalli,0,12.9552572,77.6984163
2355,thanisandra main road,0,13.0682586,77.6337068
746,gunjur,0,12.9209772,77.7361016
1678,panathur main road,0,12.9381133,77.7117059
135,anekal,0,12.7836552,77.7461411
1068,kasaba hobli,0,12.97279481317704,77.7197727192401
1035,kanakapura road,0,12.8858447,77.5563845
1159,krishnarajapura,0,12.9999024,77.6776703
788,hebbal,0,13.0382184,77.5919
374,budigere road,0,13.079778,77.7372773
2009,sadaramangala,0,12.9989026,77.7375086
1137,koramangala,0,12.9357366,77.624081
1175,kumbalgodu,0,12.97279481317704,77.7197727192401
2052,samethanahalli,0,12.979363,77.7907328
209,avalahalli,0,12.9459464,77.5409354
1093,kengeri hobli challegatta,0,12.97279481317704,77.7197727192401
297,bellandur outer ring road,0,12.9231407,77.6702113
2244,soukya road,0,13.0774744,77.5587548
928,jayanagar,0,12.9292731,77.5824229
716,gottigere,0,12.8565317,77.5877237
2079,sarjapura attibele road,0,12.97279481317704,77.7197727192401
2274,stage 2nd banashankari,0,12.9244594,77.5701543
2354,thanisandra,0,13.0522499,77.6316152
789,hebbal kempapura,0,13.050194,77.6075951
1164,kudlu gate,0,12.8895775,77.6394582
1957,rr nagar,0,12.9314733,77.5290964
831,hosa road off hosur road,0,12.97279481317704,77.7197727192401
2279,stage 6th banashankari,0,12.8835602,77.5140959
408,chandapura,0,12.8009043,77.7114908
938,jigani,0,12.7764978,77.6326204
292,begur road,0,12.9031594,77.6273213
329,binny pete,0,12.97279481317704,77.7197727192401
2419,tumkur road,0,13.0155095,77.5553229
2594,yeswanthpur,0,13.0221838,77.5530824
827,horamavu,0,13.0273312,77.6601508
2017,sahakar nagar,0,13.069641,77.5857251
2352,thambu chetty palya,0,12.97279481317704,77.7197727192401
437,chikkajala - hwy,0,13.1603506,77.6349524
793,hennur bande hbr layout hennur bagalur road,0,12.97279481317704,77.7197727192401
1780,prakruthi nagar kogilu,0,13.0978966,77.6157367
1132,konadasapura,0,13.0441926,77.7566409
268,bannerughatta,0,12.7981134,77.5843744
1916,richmond town richmond town,0,12.9597759,77.6016028
983,kadugodi,0,12.9957428,77.7579489
1034,kanakapura,0,12.8844172,77.5527662
438,chikkakannalli,0,12.893703,77.7081315
4,1st block rajajinagar,0,12.9827861,77.5595093
1474,nagarathnamma layout,0,13.0673987,77.5004877
2590,yelahanka airforce base,0,12.97279481317704,77.7197727192401
131,andapura,0,12.8251799,77.7047945
52,aditya nagar jp nagar,0,12.97279481317704,77.7197727192401
2330,talaghattapura,0,12.97279481317704,77.7197727192401
462,ck nagar basavanagudi,0,12.97279481317704,77.7197727192401
228,babusabpalya,0,13.0283523,77.650469
782,hbr layout,0,13.031992,77.6280789
2441,uttarahalli hobli,0,12.97279481317704,77.7197727192401
42,adarsha nagar azad nagar,0,12.97279481317704,77.7197727192401
628,frazer town,0,12.9975851,77.6136744
1365,maruthi nagar yelahanka,0,13.0574738,77.5811309
1464,mysore road,0,12.9467026,77.5300705
553,dommasandra,0,12.8777098,77.7534769
1857,rajajinagar,0,13.0005232,77.5496166
370,btm layout,0,12.9140008,77.6102821
2449,vajarahalli vajarahalli,0,13.0970553,77.3963634
2591,yelahanka new town,0,13.0978039,77.5811889
95,allalasandra yelahanka,0,13.0910132,77.5863933
762,halasuru,0,12.9778793,77.6246697
756,hadosiddapura chikkakannalli,0,12.893703,77.7081315
2583,yamare,0,12.8716739,77.7610456
1165,kudlu main road,0,12.8921814,77.6483362
2273,stage 2 rmv,0,13.0360109,77.5695288
454,chokkanahalli,0,13.0850788,77.6263539
1142,kothanur,0,12.8701259,77.5820178
876,indiranagar,0,12.9732913,77.6404672
541,doddakallasandra konanakunte,0,12.97279481317704,77.7197727192401
2110,seegehalli,0,13.0164845,77.71748
1092,kengeri,0,12.9176571,77.4837568
2506,vidyaranyapura,0,13.0766407,77.5577315
2588,yelachenahalli kumaraswamy layout kanakapura road,0,12.97279481317704,77.7197727192401
1176,kundalahalli brookefield,0,12.9673463,77.7167958
1728,phase 2 electronic city,0,12.8468545,77.6769267
1526,neeladri nagar,0,12.8415946,77.6479125
109,ambalipura,0,12.9173303,77.667161
343,block 9th jayanagara,0,12.9341998,77.5841516
372,budigere,0,13.1351506,77.7471989
380,cambridge layout jogupalya,0,12.9725694,77.627944
1822,rachenahalli thanisandra,0,13.057503,77.6264256
1802,pulkeshi nagar,0,12.97279481317704,77.7197727192401
543,doddakannelli,0,12.9115381,77.6934164
1288,mahadevapura,0,12.9965445,77.6927176
299,bellary road,0,13.0475595,77.5919822
392,chambenahalli,0,12.8886379,77.7662379
1074,kattigenahalli bellary road,0,12.97279481317704,77.7197727192401
1387,medahalli,0,13.0278454,77.7206079
510,devasthanagalu varthur,0,12.97279481317704,77.7197727192401
1133,konanakunte,0,12.8792861,77.5697529
758,hagadur,0,12.9649101,77.7558492
295,belathur main road,0,13.0070848,77.7420586
472,confident rigel althena,0,12.8569088,77.7839152
898,itpl whitefield,0,12.9863497,77.7325809
1730,phase 2 lakedew residency,0,12.8974697,77.6599291
2007,sadahalli,0,13.2111088,77.647022
2217,singanayakanahalli,0,13.1478621,77.5693207
58,aduru anekal,0,12.97279481317704,77.7197727192401
1499,nandi hills,0,13.5379282,77.7324372
2021,sai adhya,0,12.97279481317704,77.7197727192401
1799,psr vanasree sarjapur road,0,12.97279481317704,77.7197727192401
1069,kasavanahalli,0,12.8977737,77.6745075
296,bellahalli,0,13.0997677,77.6427148
910,jakkuru layout jakkuru,0,13.0763895,77.6057269
2413,trinity kriss,0,12.97279481317704,77.7197727192401
23,abbaiah reddy layout,0,12.9792262,77.680936
1877,ramamurthy nagar,0,13.0120218,77.6777817
2389,thubarahalli whitefield,0,12.9559247,77.7215365
1731,phase 2nd jp nagar,0,12.9104179,77.5950737
1353,marathahalli sarjapur outer ring road,0,12.97279481317704,77.7197727192401
603,epip zone whitefield,0,12.97279481317704,77.7197727192401
1905,rbi layout j p nagar,0,12.97279481317704,77.7197727192401
22,aavalahalli,0,12.97279481317704,77.7197727192401
911,jalahalli jalahalli outer ring road,0,13.0426967,77.5504594
1330,manayata tech park,0,13.0454286,77.6269247
352,bommanahalli,0,12.9034582,77.6230028
1959,rt nagar,0,13.0227204,77.595715
547,doddanekundi kartik nagar,0,12.97279481317704,77.7197727192401
2241,sompura,0,12.8778283,77.4972385
3,1a block koramangala,0,12.9348429,77.6189768
986,kaikondrahalli,0,12.9138348,77.6775268
1732,phase 2nd judicial layout,0,12.97279481317704,77.7197727192401
710,gopasandra,0,12.8474202,77.73726
794,hennur gardens,0,13.0376905,77.6432902
851,hulimavu,0,12.8773486,77.6028031
2140,shanthala nagar ashok nagar,0,12.9754896,77.6072093
767,haralur,0,12.9044856,77.6654434
826,hoodi hoodi,0,12.9835039,77.7270257
1734,phase 4 jp nagar,0,12.9096941,77.5866067
414,channasandra,0,12.9873426,77.7538033
581,ecc road whitefield,0,12.9811905,77.7433061
984,kaggadasapura indira nagar,0,12.97279481317704,77.7197727192401
287,begur,0,12.8633887,77.6130112
275,basavanagudi,0,12.9417261,77.5755021
1109,kithaganur village,0,12.97279481317704,77.7197727192401
354,bommasandra industrial area,0,12.8137512,77.6953367
1493,nambiar district 25 phase 1,0,12.8747325,77.736087
654,garudachar palya mahadevapura,0,12.9927632,77.7027663
856,huvinayakanahalli,0,13.1478821,77.6896848
549,doddathoguru electronic city,0,12.8470854,77.6477787
1737,phase 7 jp nagar,0,12.9096941,77.5866067
41,adarsh palace,0,12.9153952,77.5848497
1116,kodigehalli main road,0,13.0021359,77.7360157
339,block 4th jayanagar,0,12.928559,77.5823467
727,green glen layout bellandur,0,12.97279481317704,77.7197727192401
545,doddamma layout hebbal,0,12.97279481317704,77.7197727192401
1550,neraluru,0,12.7845589,77.7383327
2511,vijaya bank layout bommanahalli,0,12.97279481317704,77.7197727192401
711,gopasandra sarjapura road,0,12.97279481317704,77.7197727192401
2467,varthur road,0,12.9569141,77.7022558
1588,nyanapanahalli,0,12.97279481317704,77.7197727192401
2201,siddanna layout stage 2 banashankari,0,12.9241776,77.5655772
2573,whitefield main road,0,12.9803676,77.7516851
731,gubbalala subramanyapura,0,12.8837102,77.5413403
202,attur layout yelahanka new town,0,12.97279481317704,77.7197727192401
281,bda layout hsr layout,0,12.9137415,77.6374623
855,huttanahalli,0,12.97279481317704,77.7197727192401
446,chinnappa layout devasthanagalu,0,12.97279481317704,77.7197727192401
2286,subramani nagar hebbal,0,12.97279481317704,77.7197727192401
739,gundappa layout gottigere,0,12.97279481317704,77.7197727192401
9,3rd block rajajinagar,0,12.9874289,77.5541838
1926,rk hegde nagar,0,13.0686949,77.6336566
2106,sector 1st hsr layout,0,12.9105609,77.6271039
885,infosys head quater,0,12.97279481317704,77.7197727192401
836,hoskote road,0,12.9806346,77.7719489
2373,thirumenahalli,0,13.0901794,77.6334125
1476,nagasandra,0,13.0479536,77.5001422
1018,kalyan nagar,0,13.0221416,77.6403368
764,handenahalli,0,12.8259815,77.7673455
300,beml layout-brookefield brookefield,0,12.9611099,77.7164738
250,banashankari,0,12.9278196,77.556621
2539,vishweshwaraiah layout akash nagar,0,12.97279481317704,77.7197727192401
1114,kodathi,0,12.8905129,77.7133427
1479,nagegowdanapalya,0,12.8683303,77.5142974
1575,nimbekaipura road,0,13.061207,77.7419046
356,borewell road,0,12.9685885,77.7462183
159,arekere,0,12.8872086,77.5960493
537,dodda nekkundi extension kartik nagar outer ring road,0,12.97279481317704,77.7197727192401
409,chandapura anekal road,0,12.790674,77.7056194
1885,rampura,0,13.2977828,77.4182011
381,carmelaram,0,12.9111998,77.7065133
276,basaveshwara hbcs layout vijayanagar west of chord road,0,12.97279481317704,77.7197727192401
2503,vidhyaranyapura thindlu,0,12.97279481317704,77.7197727192401
955,jr layout,0,12.9002724,77.6691608
927,jayamahal jayamahal,0,12.9944698,77.5936554
2592,yemalur bellandur,0,12.97279481317704,77.7197727192401
864,ideal homes township rajarajeshwari nagar,0,12.97279481317704,77.7197727192401
293,bel layout bedarahalli,0,12.97279481317704,77.7197727192401
13,9th block stage 2 naagarabhaavi,0,12.97279481317704,77.7197727192401
113,ambedkar nagar whitefield,0,12.9828866,77.7518975
338,block 3rd koramangala,0,12.9274583,77.6273102
655,gattahalli electronic city,0,12.97279481317704,77.7197727192401
1848,rainbow drive,0,12.9062184,77.6868318
540,doddagubbi,0,13.0720681,77.6683289
2245,southegowdanahalli,0,12.97279481317704,77.7197727192401
1738,phase 8th jp nagar,0,12.9104179,77.5950737
985,kaggalipura,0,12.8089587,77.5097006
546,doddanagamangala village,0,12.97279481317704,77.7197727192401
747,gunjur palya,0,12.9228378,77.7188315
1862,rajara,0,12.97279481317704,77.7197727192401
538,doddaballapur main road,0,12.97279481317704,77.7197727192401
912,jalahalli west,0,13.0533332,77.5306036
2473,vasanthapura subramanyapura,0,12.97279481317704,77.7197727192401
390,central excise layout sanjayanagara,0,12.97279481317704,77.7197727192401
2291,sultanpalya,0,13.0266392,77.6039706
1987,rustam bagh layout,0,12.97279481317704,77.7197727192401
1952,royal panchajanyaa,0,12.97279481317704,77.7197727192401
939,jigani road,0,12.81114,77.6634021
896,iti layout hsr layout,0,12.97279481317704,77.7197727192401
1478,nagavara,0,13.0374647,77.623602
326,bilekahalli,0,12.9046331,77.6070945
965,k channasandra,0,13.040022,77.6796248
2272,stage 2 naagarabhaavi,0,12.97279481317704,77.7197727192401
646,ganga nagar extension ganga nagar,0,12.97279481317704,77.7197727192401
2504,vidya nagar peenya,0,12.97279481317704,77.7197727192401
1948,royal county gottigere,0,12.8596023,77.573941
2008,sadara mangala industrial area thigalarapalya,0,12.97279481317704,77.7197727192401
1609,officers colony,0,12.9632532,77.6150863
760,hal,0,12.9557759,77.6881147
656,gaurav nagar,0,13.0223283,77.6032599
1798,provident capella whitefield provident capella whitefield,0,12.97279481317704,77.7197727192401
2211,silver county road,0,12.8920524,77.6667212
237,bahubali nagar,0,13.0450669,77.5492146
1887,ranka nagar kaval byrasandra,0,12.97279481317704,77.7197727192401
368,brookefield,0,12.9652094,77.717936
327,bileshivale,0,13.0543306,77.6710224
24,abbigere,0,13.0784177,77.5245316
2353,thambu chetty palya main road,0,12.97279481317704,77.7197727192401
310,bharath nagar bedarahalli,0,12.97279481317704,77.7197727192401
1583,nri layout main road,0,13.0237524,77.6791401
340,block 4th sir m vishweshwaraiah layout,0,12.97279481317704,77.7197727192401
255,bandapura aavalahalli,0,12.97279481317704,77.7197727192401
63,agara village,0,12.8446015,77.4879398
598,embassy golf links business park challaghatta,0,12.97279481317704,77.7197727192401
274,basapura village road,0,12.97279481317704,77.7197727192401
252,banashankari temple ward banashankari,0,12.9244594,77.5701543
737,gulimangala,0,12.8492767,77.7001531
2532,virat nagar bommanahalli,0,12.97279481317704,77.7197727192401
1120,kogilu,0,13.1067228,77.6173956
253,banaswadi,0,13.0141618,77.6518539
1032,kanaka nagar hebbal,0,12.97279481317704,77.7197727192401
1078,kaval bairasandra,0,12.97279481317704,77.7197727192401
434,chikka thirupati road,0,12.97279481317704,77.7197727192401
2277,stage 3rd banashankari,0,12.9366883,77.5488033
544,doddamavalli,0,12.97279481317704,77.7197727192401
597,elegant kevin enclave,0,12.97279481317704,77.7197727192401
10,3rd stage 4th phase banashankari,0,12.97279481317704,77.7197727192401
979,kachanayakanahalli bommasandra,0,12.7990299,77.6830517
918,janatha colony chikkanagamangala,0,12.97279481317704,77.7197727192401
473,coramangala,0,12.97279481317704,77.7197727192401
72,ags layout arehalli,0,12.9135288,77.5408913
419,chelekare kalyan nagar outer ring road,0,12.97279481317704,77.7197727192401
1447,muddinapalya road,0,12.9686911,77.4878009
1669,palace guttahalli,0,12.999489,77.5843469
2091,sathnur,0,12.97279481317704,77.7197727192401
2027,sai meadows parappana agrahara,0,12.97279481317704,77.7197727192401
57,aduru,0,13.0559357,77.7051427
1736,phase 6 jp nagar,0,12.9096941,77.5866067
379,byrathi,0,13.0578901,77.6721894
2454,valepura,0,12.9562248,77.766079
2392,thyvakanahally,0,12.97279481317704,77.7197727192401
316,bhattarahalli,0,13.0255971,77.7145545
993,kalena agrahara,0,12.8658068,77.5911918
1360,margondanahalli,0,12.97279481317704,77.7197727192401
2219,singasandra hosur road,0,12.8754555,77.6483068
935,jeevanahalli cox town,0,12.9954832,77.6239259
1495,nanda kumar layout,0,12.97279481317704,77.7197727192401
120,ams layout vidyaranyapura,0,12.97279481317704,77.7197727192401
2497,veroni green meadows sompura,0,12.97279481317704,77.7197727192401
648,ganganagar,0,13.0275463,77.5905718
980,kacharakanahalli,0,13.0222071,77.6319093
2059,sanjayanagara,0,13.0318634,77.5774383
184,ashirvad colony hormavu,0,12.97279481317704,77.7197727192401
432,chikka begur,0,12.8790241,77.6372193
2326,t dasarahalli,0,13.0450201,77.5076896
585,ejipura,0,12.945245,77.6274776
897,itpl main road,0,12.9559117,77.714749
2234,smondo 2,0,12.8210841,77.6609507
1649,outer ring road,0,13.0381557,77.6259182
1296,mahaveer rich apartment,0,12.97279481317704,77.7197727192401
344,block a sahakar nagar,0,12.97279481317704,77.7197727192401
2535,virupakshapura,0,13.0638109,77.5717581
1117,kodihalli,0,12.9635497,77.6460411
302,benson town,0,12.997343,77.6036815
929,jayanagar housing society layout,0,12.97279481317704,77.7197727192401
1349,manyata tech park road,0,13.0512567,77.620198
172,arkavathy layout thanisandra,0,13.0461279,77.6366998
1033,kanaka nagar-nri layout nri layout,0,12.97279481317704,77.7197727192401
16,aadhava elite home&amp;amp;#39;s,0,12.97279481317704,77.7197727192401
242,balagere,0,12.9377243,77.7280705
2344,telecom layout jakkuru,0,13.0709884,77.6171798
128,anchepalya,0,13.050527,77.47942
2298,sunkadakatte,0,12.9951556,77.5022163
2475,vayunandana layout,0,12.97279481317704,77.7197727192401
2270,stage 1st kumaraswamy layout,0,12.9068996,77.5637704
2499,vibhutipura extension kartik nagar,0,12.97279481317704,77.7197727192401
2018,sahakar nagar extension,0,12.97279481317704,77.7197727192401
704,gollahalli-electronic city electronic city,0,12.8403531,77.6637698
833,hosahalli bagaluru,0,12.97279481317704,77.7197727192401
1363,marsur,0,12.7678915,77.7043732
364,brindavan,0,12.9683657,77.7606342
1157,krishna reddy layout domlur,0,12.97279481317704,77.7197727192401
700,golden palms apartment,0,12.97279481317704,77.7197727192401
2269,stage 1 vijayanagar,0,12.9738485,77.5361548
2094,sattva aqua vista,0,12.8645007,77.5905498
280,bda house sale in bda complex,0,12.97279481317704,77.7197727192401
2329,talacauvery layout byatarayanapura,0,12.97279481317704,77.7197727192401
1321,malur whitefield road,0,12.97279481317704,77.7197727192401
509,devasandra main road,0,13.0015316,77.7145035
2538,vishweshwaraiah layout 8th block,0,12.97279481317704,77.7197727192401
830,hosa road area,0,12.97279481317704,77.7197727192401
2162,shikaripalya main road,0,12.97279481317704,77.7197727192401
60,aecs layout marathahalli,0,12.97279481317704,77.7197727192401
542,doddakammanahalli main road,0,12.8620919,77.5997066
341,block 5th g anjanapura township,0,12.97279481317704,77.7197727192401
377,byagadadhenahalli,0,12.97279481317704,77.7197727192401
1110,kithiganur,0,12.97279481317704,77.7197727192401
1584,nri layout ramamurthy nagar,0,12.97279481317704,77.7197727192401
1121,kogilu main road,0,13.1044942,77.6111378
1292,mahakavi kuvempu road,0,12.9985238,77.5568794
436,chikkagubbi village,0,13.0806067,77.6662218
1368,mathikere extension mathikere,0,12.97279481317704,77.7197727192401
1527,neeladri road,0,12.8525678,77.6436309
371,btm layout stage 1,0,12.9140008,77.6102821
342,block 8th sir m vishweshwaraiah layout,0,12.97279481317704,77.7197727192401
828,horamavu agara hormavu,0,12.97279481317704,77.7197727192401
1472,naganathapura rayasandra,0,12.97279481317704,77.7197727192401
1954,royal sunrise apartments,0,12.97279481317704,77.7197727192401
883,infantry road,0,12.9800059,77.6050006
1115,kodigehalli,0,13.0031666,77.7272835
825,hompalaghatta,0,12.6948991,77.6998652
768,haralur main road,0,12.97279481317704,77.7197727192401
411,chandra layout,0,12.955333,77.5238903
1570,ngef layout chandra layout,0,12.97279481317704,77.7197727192401
1151,kowdenahalli ramamurthi nagar,0,13.012884,77.6848066
2013,sagar jambagaru,0,12.97279481317704,77.7197727192401
1306,mailasandra,0,12.915939,77.4932278
511,deve gowda nagar rt nagar,0,12.97279481317704,77.7197727192401
1094,kengeri main road,0,12.9769105,77.5100299
2278,stage 5th banashankari,0,12.8778987,77.5089292
2141,shanthinagar,0,12.9578068,77.5994161
1463,mylasandra,0,12.9160293,77.497544
395,chamundi layout,0,12.9609248,77.5273694
75,ajjagondahalli,0,12.97279481317704,77.7197727192401
2545,vr residency project,0,12.97279481317704,77.7197727192401
1878,ramanjaneyanagar chikkalasandra,0,12.97279481317704,77.7197727192401
445,chinnapanna halli,0,12.97279481317704,77.7197727192401
223,ayyappa nagar krishnarajapura,0,12.97279481317704,77.7197727192401
2251,sr naidu layout,0,12.97279481317704,77.7197727192401
475,cottonpet main road,0,12.9650246,77.5700688
2512,vijayanagar,0,12.9709537,77.5373851
67,agrahara jakkur,0,12.97279481317704,77.7197727192401
838,hrbr layout kalyan nagar outer ring road,0,12.97279481317704,77.7197727192401
2111,seegehalli krishnarajapura,0,12.97279481317704,77.7197727192401
2593,yerappanahalli,0,13.0878164,77.6831494
435,chikkagubbi,0,13.0822582,77.6616026
378,bychapura,0,12.97279481317704,77.7197727192401
2526,vinayak nagar kattigenahalli,0,12.97279481317704,77.7197727192401
881,industrial area hoodi,0,12.992494,77.733014
926,jayamahal extension jayamahal,0,13.0011064,77.5969579
353,bommasandra,0,12.816016,77.6892217
1779,prakash nagar rajajinagar,0,12.97279481317704,77.7197727192401
854,hutchins road,0,13.0048574,77.6232065
1477,nagashetty halli rmv extension stage 2,0,12.97279481317704,77.7197727192401
824,hmt layout nagasandra,0,13.03553,77.5027084
561,dr rajkumar road,0,13.0055139,77.5540168
1532,neelasandra,0,12.9523859,77.6152058
283,bds layout,0,13.0657342,77.6429906
439,chikkalasandra,0,12.9121916,77.5476337
332,bismillahnagar,0,12.97279481317704,77.7197727192401
279,bcc layout deepanjali nagar,0,12.97279481317704,77.7197727192401
234,bagepalli,0,12.97279481317704,77.7197727192401
1089,kembathalli,0,12.860854,77.5802443
932,jcr layout,0,12.933134,77.7043284
271,bapuji layout attiguppe,0,12.97279481317704,77.7197727192401
221,ayyappa layout chandra layout,0,12.97279481317704,77.7197727192401
1198,lakshmi devi nagar kaveri nagar,0,12.97279481317704,77.7197727192401
156,aradhana layout arakere,0,12.97279481317704,77.7197727192401
2136,shankarapura,0,12.9501226,77.5735814
335,block 11th anjanapura,0,12.8588538,77.5477588
982,kada agrahara,0,13.0815051,77.69505
548,doddanekundi main road,0,12.9715778,77.6942632
2208,silk board area,0,12.97279481317704,77.7197727192401
1428,mohammed sab palya,0,12.97279481317704,77.7197727192401
1375,mayasandra,0,12.7503059,77.7473192
1029,kammasandra,0,13.079198,77.7136366
324,bidaraguppe,0,12.8060574,77.7862873
291,begur koppa road,0,12.8548787,77.6096546
2527,vinayaka layout hebbal kempapura,0,12.97279481317704,77.7197727192401
289,begur koppa,0,12.8548787,77.6096546
290,begur koppa banglore,0,12.97279481317704,77.7197727192401
2482,veersandra,0,12.97279481317704,77.7197727192401
1667,pai layout mahadevapura,0,12.97279481317704,77.7197727192401
1319,malleshwaram,0,13.0027353,77.5703253
2540,vishweshwarapura shankarapura,0,12.97279481317704,77.7197727192401
2489,venkateshwara layout sunkadakatte,0,12.97279481317704,77.7197727192401
1031,kanaka layout,0,13.0865656,77.6508546
1058,kannamangala,0,13.0155506,77.7630344
433,chikka bommasandra yelahanka,0,12.97279481317704,77.7197727192401
882,industrial layout,0,12.9736253,77.711316
1317,mallathahalli outer ring road,0,12.9701824,77.5068243
1095,kengeri satellite town,0,12.9229728,77.4842926
504,defence colony indiranagar,0,12.9754968,77.6413605
2084,sasiveghatta,0,13.0916071,77.4765474
1061,kannuru,0,13.0967426,77.6535003
463,cleartitle green valley,0,12.97279481317704,77.7197727192401
460,church street,0,12.9749116,77.6052558
1503,nanja reddy colony jeevan bima nagar,0,12.97279481317704,77.7197727192401
1081,kaverappa layout kadubeesanahalli,0,12.938169,77.6992075
1221,lingadheeranahalli,0,12.97279481317704,77.7197727192401
835,hoskote chintamani road,0,12.97279481317704,77.7197727192401
763,hallehalli,0,12.97279481317704,77.7197727192401
1451,mullur,0,12.97279481317704,77.7197727192401
2275,stage 2nd btm layout,0,12.9133887,77.6043111
2456,valmark cityville bannargetta main road,0,12.97279481317704,77.7197727192401
2488,venkatapura hsr layout,0,12.9213783,77.633349
792,hennur bagalur main road,0,13.0887495,77.6547635
294,belathur,0,12.9989822,77.7408733
2276,stage 2nd rajajinagar,0,12.9982067,77.5499224
1174,kumaraswamy layout kumaraswamy layout,0,12.9094255,77.5655013
1108,kithaganur bidarahalli main road,0,12.97279481317704,77.7197727192401
273,basapura,0,12.8686664,77.6441741
1090,kempegowda international airport road,0,13.1976048,77.7074856
936,jeevanhalli,0,12.97279481317704,77.7197727192401
2582,yadavanahalli,0,12.7836552,77.7461411
493,dasanapura,0,12.7467724,77.7742876
2060,sanjeeappa colony,0,12.97279481317704,77.7197727192401
1293,mahalakshmipuram layout mahalakshmipuram,0,13.0029165,77.5464264
1585,ns palya,0,12.9105841,77.6008291
134,andrahalli,0,13.0196883,77.4889451
1154,kr puram,0,13.007516,77.695935
1163,kudlu,0,12.8889126,77.6555716
2440,uttarahalli,0,12.9055682,77.5455438
1316,mallasandra,0,13.0548302,77.5155741
650,gangodanhalli cross near nice road,0,12.97279481317704,77.7197727192401
569,duplex independent house,0,12.97279481317704,77.7197727192401
1660,padmanabhanagar,0,12.9181024,77.5576638
1506,narasimharaja colony nagarbhavi,0,12.97279481317704,77.7197727192401
1388,medaralli chikbanavara,0,12.97279481317704,77.7197727192401
1341,manjunatha nagar-bagalakunte bagalakunte,0,12.97279481317704,77.7197727192401
832,hosahalli,0,12.9660431,77.5414979
1361,mariyannapalya,0,12.97279481317704,77.7197727192401
2048,samanahalli road,0,12.97279481317704,77.7197727192401
2268,stage 1 btm layout,0,12.9140008,77.6102821
2074,saraswathipura,0,12.97279481317704,77.7197727192401
440,chikkanagamangala,0,12.8565333,77.6927891
2225,sir m visvesvaraya nagara,0,12.9517631,77.5769902
1318,malleshpalya new thippasandra post,0,12.97279481317704,77.7197727192401
415,channasandra-srinivaspura srinivaspura,0,12.97279481317704,77.7197727192401
336,block 1st hbr layout,0,13.0374664,77.628799
769,harapanahalli,0,12.7910051,77.6209489
2391,thyagaraja nagar basavanagudi,0,12.97279481317704,77.7197727192401
1407,mico layout hongasandra,0,12.97279481317704,77.7197727192401
765,hanumagiri,0,12.9180648,77.5363702
337,block 3rd hbr layout,0,13.0314059,77.6355596
222,ayyappa layout hebbal,0,12.97279481317704,77.7197727192401
1767,poorna pragna layout banashankari,0,12.97279481317704,77.7197727192401
201,attibele anekal road,0,12.7419741,77.7366885
312,bharathi layout,0,12.9299385,77.4870761
210,avalahalli banashankari,0,12.97279481317704,77.7197727192401
206,austin town,0,12.9612736,77.6152935
1091,kempegowdanagar byadarahalli,0,12.97279481317704,77.7197727192401
2271,stage 2 kumaraswamy layout,0,12.9150398,77.5678879
278,battarahalli,0,13.0114726,77.7099343
620,fci layout deepanjali nagar,0,12.97279481317704,77.7197727192401
1469,naagarabhaavi,0,12.97279481317704,77.7197727192401
2212,simhadri layout singapura village,0,12.97279481317704,77.7197727192401
137,anjanapura,0,12.8601312,77.5540587
83,akash nagar,0,12.9591286,77.6974983
73,aishwarya royal city,0,12.97279481317704,77.7197727192401
552,domlur village domlur,0,12.9617214,77.6366258
531,dlf newtown,0,12.8750432,77.6164914
2370,thirumala shathalli cross channasandra,0,12.97279481317704,77.7197727192401
1524,near khb suryacity phase1,0,12.97279481317704,77.7197727192401
288,begur  rural,0,13.1583176,77.3261161
301,bengaluru kanakapura road,0,12.9161105,77.5740163
539,doddagattiganabbe,0,12.97279481317704,77.7197727192401
1021,kamalanagar,0,12.9948861,77.5379386
2442,uttarahalli main road,0,12.8988689,77.5441625
1393,medi agrahara,0,13.1029398,77.52051
791,hennagara,0,12.7906876,77.6741161
2240,somashetti halli,0,12.97279481317704,77.7197727192401
2160,shettigere,0,13.1954297,77.649453
596,electronic city phase 1 hulimangla,0,12.97279481317704,77.7197727192401
456,choodasandra,0,12.8883623,77.6799727
621,ferns city kartik nagar outer ring road,0,12.97279481317704,77.7197727192401
2575,widia layout attiguppe,0,12.97279481317704,77.7197727192401
146,annapurneshwari nagar,0,12.9741713,77.5880263
441,chikkavaderapura,0,12.8973094,77.7483775
455,cholourpalya,0,12.9708424,77.5497115
1374,mavalli,0,12.9528478,77.5819643
110,ambalipura haralur,0,12.9129206,77.6630774
87,akshayanagar,0,12.8750432,77.6164914
1340,manjunatha layout 2ns cross marathahalli,0,12.97279481317704,77.7197727192401
1461,mutthugadahalli,0,12.97279481317704,77.7197727192401
251,banashankari 6th stage 10th block,0,12.8913012,77.4930889
1020,kamakshipalya outer ring road,0,12.97279481317704,77.7197727192401
1460,mutharayana nagar rajarajeshwari nagar stage 5,0,12.97279481317704,77.7197727192401
535,doctor layout rayasandra,0,12.97279481317704,77.7197727192401
759,haines road,0,13.0003882,77.6111312
1612,old gurappanapalya btm layout bannerghatta main road,0,12.97279481317704,77.7197727192401
1847,railway layout jnana ganga nagar,0,12.97279481317704,77.7197727192401
266,banjara layout horamavu,0,13.0382854,77.6652622
652,ganigarapalya,0,12.8731989,77.5317085
651,ganigarahalli,0,13.0890496,77.5109895
2349,tg layout,0,12.97279481317704,77.7197727192401
1196,lakkasandra wilson garden,0,12.9513296,77.5952172
2288,suchitra road,2,17.5023414,78.4839362
1124,kokapet outer ring road,2,17.432110274842767,78.44455461685534
619,fatehnagar,2,17.4405095,78.4483456
1415,miyapur nh 9,2,17.4981608,78.3567628
1644,osman nagar,2,17.4418133,78.2782231
1866,rajendranagar mandal,2,17.3615965,78.4276746
2133,shamshabad,2,17.2627038,78.388111
1135,kondapur,2,17.4587912,78.3730556
2347,tellapur outer ring road,2,17.432110274842767,78.44455461685534
1430,mokila,2,17.432110274842767,78.44455461685534
350,bolarum medchal road,2,17.5330679,78.5154568
1512,narsingi outer ring road,2,17.432110274842767,78.44455461685534
1806,puppalguda,2,17.432110274842767,78.44455461685534
2120,serilingampalle m,2,17.432110274842767,78.44455461685534
375,budwel,2,17.3187641,78.3926573
360,bowrampet outer ring road,2,17.432110274842767,78.44455461685534
1131,kompally,2,17.5354868,78.5096979
895,isnapur outer ring road,2,17.432110274842767,78.44455461685534
1129,kollur outer ring road,2,17.432110274842767,78.44455461685534
230,bachupally,2,17.536648,78.3644736
1273,madeenaguda,2,17.432110274842767,78.44455461685534
1168,kukatpally nh 9,2,17.4930841,78.4054408
1459,muthangi nh 9,2,17.432110274842767,78.44455461685534
667,ghatkesar nh 2 2,2,17.432110274842767,78.44455461685534
636,gaganpahad,2,17.3549315,78.4785127
568,dundigal outer ring road,2,17.432110274842767,78.44455461685534
2433,uppal nh 2 2,2,17.432110274842767,78.44455461685534
634,gaddapotharam,2,17.432110274842767,78.44455461685534
448,chitkul,2,17.432110274842767,78.44455461685534
257,bandlaguda jagir,2,17.3719459,78.4050471
2086,satamrai,2,17.432110274842767,78.44455461685534
857,hyder nagar nh 9,2,17.432110274842767,78.44455461685534
1337,manikonda jagir,2,17.432110274842767,78.44455461685534
1489,nalagandla,2,17.432110274842767,78.44455461685534
2132,shamirpet,2,17.6618453,78.6030577
2417,tukkuguda srisailam highway,2,17.432110274842767,78.44455461685534
1699,patancheruvu,2,17.5317301,78.2641269
355,bongloor outer ring road,2,17.432110274842767,78.44455461685534
1961,rudraram nh 9,2,17.432110274842767,78.44455461685534
1548,neopolis,2,17.432110274842767,78.44455461685534
1390,medchal,2,17.3630295,78.5768953
1480,nagole,2,17.3775306,78.5601231
1214,lb nagar nh 9,2,17.3501617,78.5510938
567,dulapally,2,17.432110274842767,78.44455461685534
1755,pocharam nh 2 2,2,17.432110274842767,78.44455461685534
1346,mansanpalle,2,17.432110274842767,78.44455461685534
198,attapur,2,17.3672244,78.4307278
1107,kismatpur outer ring road,2,17.432110274842767,78.44455461685534
2053,sanath nagar nh 9,2,17.4522594,78.4446705
1331,manchirevula outer ring road,2,17.432110274842767,78.44455461685534
1475,nagarjuna sagar road,2,17.3357476,78.5516445
396,chanda nagar,2,17.4534764,78.3943669
1063,kapra,2,17.4846356,78.5610095
1580,nizampet,2,17.5007014,78.3892472
286,begumpet,2,17.446195,78.463016
282,bdl township,2,17.432110274842767,78.44455461685534
850,huda layout nalagandla,2,17.432110274842767,78.44455461685534
116,ameenpur,2,17.5236905,78.3317297
743,gundlapochampalli,2,17.432110274842767,78.44455461685534
908,jaibery colony komapally,2,17.432110274842767,78.44455461685534
1540,neknampur,2,17.432110274842767,78.44455461685534
719,gowdavalli,2,17.432110274842767,78.44455461685534
1804,punjagutta nh 9,2,17.4281815,78.4531997
1298,maheshwaram,2,17.3158544,78.4828417
1446,muchintal,2,17.432110274842767,78.44455461685534
1179,kuntloor,2,17.3270918,78.6052922
1166,kukatpally housing board colony nh 9,2,17.4922068,78.3973638
229,bacharam,2,17.432110274842767,78.44455461685534
963,jyothi rao pule colony serilingampally,2,17.432110274842767,78.44455461685534
236,bahadurpally,2,17.432110274842767,78.44455461685534
1912,reliance green village,2,17.4995842,78.4767441
92,alkapur township manikonda outer ring road,2,17.432110274842767,78.44455461685534
347,bn reddy colony rai durg,2,17.432110274842767,78.44455461685534
994,kalimandir bandlaguda,2,17.432110274842767,78.44455461685534
1391,medchal ghanpur shamirpet road,2,17.432110274842767,78.44455461685534
1900,raviryal outer ring road,2,17.432110274842767,78.44455461685534
117,ameerpet nh 9,2,17.4375012,78.4482505
2038,sainikpuri,2,17.4892154,78.5424889
1470,nacharam,2,17.4284936,78.5528098
1702,pati,2,17.432110274842767,78.44455461685534
38,adarsh nagar nh 7,2,17.4058387,78.4711355
1651,p and t colony bandlaguda jagir,2,17.432110274842767,78.44455461685534
1434,moosarambagh road,2,17.3885712,78.5165056
285,beeramguda ramachandrapuram,2,17.5094005,78.3003741
708,gopanpalle,2,17.432110274842767,78.44455461685534
623,financial district nanakram guda,2,17.432110274842767,78.44455461685534
239,bairamalguda karmanghat,2,17.3436477,78.536069
637,gajularamaram,2,17.5271759,78.4200077
635,gagan mahal himayath nagar nh 7,2,17.432110274842767,78.44455461685534
643,gandi maisamma outer ring road,2,17.432110274842767,78.44455461685534
2037,sainathpuram,2,17.475693,78.5515621
114,amberpet,2,17.3861776,78.5114709
2510,vijay puri colony,2,17.432110274842767,78.44455461685534
265,banjara hills nh 9,2,17.4177464,78.4399014
259,bandlaguda nagole,2,17.3737298,78.5619492
823,hitech city,2,17.469728,78.3852406
2287,suchitra,2,17.5023414,78.4839362
1653,p and t colony dilsukhnagar,2,17.432110274842767,78.44455461685534
1551,neredmet,2,17.470446,78.5360054
916,janachaitanya colony,2,17.432110274842767,78.44455461685534
2039,sainikpuri cross road,2,17.4830296,78.5523621
1610,old alwal,2,17.5060381,78.5007272
957,jubilee hills check post road,2,17.432110274842767,78.44455461685534
260,bandlaguda secunderabad,2,17.432110274842767,78.44455461685534
151,apgos coop hsg society hafeezpet,2,17.432110274842767,78.44455461685534
91,alkapoor,2,17.432110274842767,78.44455461685534
2338,tarnaka,2,17.4285479,78.5379433
1805,puppalaguda road,2,17.432110274842767,78.44455461685534
1828,raghavendra nagar colony bank colony,2,17.503038,78.4680844
231,badangpet,2,17.3383467,78.5222127
1313,mallampet outer ring road,2,17.432110274842767,78.44455461685534
2128,shaikpet,2,17.4057955,78.4006536
1099,khajaguda,2,17.4172202,78.3656108
359,bowenpally,2,17.465169,78.4729384
447,chintalmet,2,17.3498405,78.4218874
775,hasthinapuram central,2,17.3295376,78.5512845
46,adibatla,2,17.432110274842767,78.44455461685534
1754,pnr colony ameenpur,2,17.432110274842767,78.44455461685534
1494,nanakaramguda,2,17.432110274842767,78.44455461685534
1827,raghavendra colony kondapur,2,17.4719845,78.3622726
152,aphb colony gachibowli,2,17.432110274842767,78.44455461685534
349,boduppal nh 2 2,2,17.432110274842767,78.44455461685534
361,bowrampet road,2,17.432110274842767,78.44455461685534
177,aruna colony toli chowki,2,17.432110274842767,78.44455461685534
576,east anandbagh,2,17.432110274842767,78.44455461685534
872,indira nagar chanda nagar,2,17.432110274842767,78.44455461685534
2584,yapral,2,17.5030543,78.5407976
580,ec nagar colony,2,17.4622925,78.6006548
1141,kothaguda,2,17.458705,78.3638803
611,everest by phoenix,2,17.432110274842767,78.44455461685534
536,doctors colony madhapur,2,17.432110274842767,78.44455461685534
102,alwal,2,17.5022292,78.5088584
495,dayanand nagar new malakpet,2,17.432110274842767,78.44455461685534
605,erragadda nh 9,2,17.4487999,78.4356074
50,aditya hills pragathi nagar,2,17.5212043,78.4001274
956,jubilee hills,2,17.4308362,78.4102882
503,deepthisri nagar nh 9,2,17.432110274842767,78.44455461685534
1210,laxma reddy palem colony,2,17.432110274842767,78.44455461685534
1497,nandana apartment,2,17.432110274842767,78.44455461685534
1433,moosapet nh 9,2,17.4685307,78.4206695
452,chitrapuri colony,2,17.419494,78.3798412
632,gachibowli miyapur road,2,17.4909444,78.3535035
1662,padmashali colony,2,17.4209624,78.4936545
960,jupiter colony karkhana,2,17.432110274842767,78.44455461685534
1771,power welfare society,2,17.432110274842767,78.44455461685534
147,annaram,2,17.3916207,78.5600446
1581,nizampet road,2,17.5041959,78.3876505
1429,mohan nagar kothapet,2,17.37882,78.5502031
1557,new allenby secunderabad,2,17.432110274842767,78.44455461685534
1139,korremula,2,17.432110274842767,78.44455461685534
1680,panchayatiraj teachers colony hastinapuram,2,17.432110274842767,78.44455461685534
1891,rasoolpura mahatma gandhi road,2,17.432110274842767,78.44455461685534
940,jillalguda,2,17.432110274842767,78.44455461685534
2487,venkata ramana colony nagole,2,17.432110274842767,78.44455461685534
1275,madhapur,2,17.4408924,78.3916304
1136,kongara kalan,2,17.432110274842767,78.44455461685534
2109,secunderabad,2,17.4337246,78.5006827
901,izzathnagar,2,17.4673177,78.3782807
744,gundlapochampalli village road,2,17.432110274842767,78.44455461685534
1776,pragathi nagar kukatpally,2,17.5070218,78.3960917
1883,rampally,2,17.4644896,78.6489825
1367,masjid banda,2,17.4670374,78.3415168
666,ghatkesar bypass road,2,17.432110274842767,78.44455461685534
489,dammaiguda,2,17.4992875,78.5837185
2421,turkayamjal,2,17.432110274842767,78.44455461685534
1563,new mirjalguda secunderabad,2,17.432110274842767,78.44455461685534
987,kailash hills mahadevpur colony,2,17.432110274842767,78.44455461685534
1382,mayuri nagar bachupally,2,17.432110274842767,78.44455461685534
2562,warasiguda,2,17.4182415,78.5113365
644,gandipet,2,17.3650805,78.3957009
1167,kukatpally housing board road,2,17.4925222,78.3966663
514,devi nagar colony,2,17.3987932,78.4433792
848,huda colony,2,17.4898625,78.3312603
1155,krishna nagar moula ali,2,17.432110274842767,78.44455461685534
526,diamond hills colony,2,17.432110274842767,78.44455461685534
2082,saroornagar nh 9,2,17.3611655,78.5387443
442,chilkur balaji temple road chevella road,2,17.432110274842767,78.44455461685534
2283,subhash nagar,2,17.4865053,78.5011252
745,gundlapochampally outer ring road,2,17.432110274842767,78.44455461685534
1817,quthbullapur nh 7,2,17.4966655,78.4606445
528,dilsukhnagar,2,17.3684129,78.5245602
1539,nehru nagar ramanthpur,2,17.432110274842767,78.44455461685534
412,chandrapuri colony mansoorabad,2,17.432110274842767,78.44455461685534
925,jaya prakash narayan nagar,2,17.432110274842767,78.44455461685534
631,gachibowli,2,17.4436222,78.3519638
1709,peddakanjerla,2,17.432110274842767,78.44455461685534
849,huda complex mayuri nagar,2,17.432110274842767,78.44455461685534
1614,old mla quarters,2,17.3977019,78.4823652
2033,saidabad colony road,2,17.3617261,78.507307
661,gayatri nagar,2,17.4566764,78.4035867
317,bhavani colony premavathipet,2,17.432110274842767,78.44455461685534
550,domalguda himayatnagar,2,17.4202047,78.4885787
571,durga vihar colony,2,17.4755201,78.4999208
1419,mlr colony dammaiguda,2,17.432110274842767,78.44455461685534
988,kakatiya hills kavuri hills,2,17.4351204,78.3938267
1312,malkajgiri,2,17.4511764,78.5368997
1457,muppas panchavati colony manikonda outer ring road,2,17.432110274842767,78.44455461685534
1437,moti nagar erragadda,2,17.4503255,78.4245879
1884,rampally main road,2,17.4898577,78.6111822
649,gangaram chanda nagar,2,17.432110274842767,78.44455461685534
790,hema nagar secunderabad,2,17.432110274842767,78.44455461685534
879,indresham bachuguda,2,17.432110274842767,78.44455461685534
323,bibinagar,2,17.432110274842767,78.44455461685534
1366,masab tank,2,17.4029622,78.450754
709,gopanpally,2,17.426644,78.3317951
1270,machabollaram medchal road,2,17.513866,78.5137342
945,journalists colony phase 3,2,17.432110274842767,78.44455461685534
180,as rao nagar,2,17.4798689,78.5509653
1207,langar houz,2,17.3827733,78.392535
1490,nalanda nagar upparpally,2,17.432110274842767,78.44455461685534
315,bhaskar rao nagar colony,2,17.432110274842767,78.44455461685534
2130,shaili gardens,2,17.5024181,78.5473073
241,bakaram,2,17.2456478,78.3000741
1875,ramachandrapuram,2,17.5086345,78.3018685
2434,upperpally,2,17.35768,78.4200013
2521,vinay nagar sayeedabad,2,17.432110274842767,78.44455461685534
51,aditya nagar gurram guda,2,17.432110274842767,78.44455461685534
1181,kushaiguda road,2,17.4793822,78.574521
1152,kowkoor,2,17.5274907,78.5374779
2533,virat nagar colony secunderabad,2,17.432110274842767,78.44455461685534
1898,ravindra nagar habsiguda,2,17.4084773,78.5397415
1538,nehru nagar colony,2,17.4031425,78.4559549
780,hayathnagar,2,17.3281147,78.6045399
629,friends colony chanda nagar,2,17.432110274842767,78.44455461685534
307,bhanur,2,17.432110274842767,78.44455461685534
238,bairagiguda,2,17.432110274842767,78.44455461685534
248,balapur,2,17.309378,78.5027245
97,allwyn colony,2,17.5043618,78.4149849
1703,patighanpur outer ring road,2,17.432110274842767,78.44455461685534
2166,shirdi enclave yapral,2,17.432110274842767,78.44455461685534
199,attapur main road,2,17.432110274842767,78.44455461685534
25,abhudaya nagar colony bandlaguda,2,17.432110274842767,78.44455461685534
1508,narayanguda,2,17.3981159,78.4885006
1611,old bowenpally,2,17.4772245,78.4849389
369,bsr colony,2,17.3563552,78.5213774
873,indira nagar dilsukhnagar,2,17.432110274842767,78.44455461685534
1281,madhurapuri colony visaka nagar,2,17.432110274842767,78.44455461685534
2209,silpa park,2,17.4679981,78.3678185
490,dammaiguda cross road,2,17.432110274842767,78.44455461685534
1280,madhura nagar,2,17.3927046,78.531403
2252,sree prabhupada township serilingampally,2,17.432110274842767,78.44455461685534
1640,ootpally,2,17.432110274842767,78.44455461685534
1396,mehdipatnam,2,17.3942627,78.4342514
2036,sainathapuram,2,17.432110274842767,78.44455461685534
1222,lingampally,2,17.4881832,78.316112
2072,sarada nagar ramanthapur,2,17.432110274842767,78.44455461685534
40,adarsh nagar uppal,2,17.4159774,78.564721
258,bandlaguda jagir road,2,17.3719459,78.4050471
1289,mahadevpur colony,2,17.5238346,78.4140552
2035,saiguda,2,17.432110274842767,78.44455461685534
776,hastinapuram,2,17.3291354,78.5542145
1815,puttulaguda,2,17.432110274842767,78.44455461685534
2044,saleem nagar colony,2,17.3720752,78.5124761
728,green homes colony,2,17.432110274842767,78.44455461685534
1143,kothapet,2,17.3679354,78.5401793
770,hari hara puram b n reddy nagar,2,17.432110274842767,78.44455461685534
2239,somajiguda nh 9,2,17.4255053,78.4585197
757,hafeezpet nh 9,2,17.4834409,78.3611316
1473,nagaram,2,17.4910113,78.613677
112,ambedkar colony mehdipatnam,2,17.432110274842767,78.44455461685534
1347,mansoorabad nh 9,2,17.3541765,78.5652906
98,almasguda badangpet,2,17.3252638,78.5269105
2459,vanasthalipuram nh 9,2,17.3303179,78.568278
642,gandhamguda road,2,17.3650805,78.3957009
1439,moula ali,2,17.46171,78.5571396
2229,sivaji nagar chandanagar,2,17.4862046,78.3198908
1698,patancheru shankarpalli road,2,17.432110274842767,78.44455461685534
2040,saket secunderabad,2,17.432110274842767,78.44455461685534
2585,yapral main road,2,17.432110274842767,78.44455461685534
1348,mansoorabad road,2,17.3528354,78.5597294
779,hayat nagar rajendra nagar outer ring road,2,17.432110274842767,78.44455461685534
803,himayatnagar,2,17.4039821,78.4881942
2056,sangeet nagar kukatpally,2,17.4830911,78.4191591
1278,madhavaram nagar colony,2,17.432110274842767,78.44455461685534
1685,paramount hills,2,17.4054819,78.4131873
1712,peerzadiguda nh 2 2,2,17.432110274842767,78.44455461685534
1125,kokapet props,2,17.432110274842767,78.44455461685534
1311,malaysian township kukatpally,2,17.4793451,78.391366
254,bandalguda,2,17.432110274842767,78.44455461685534
2126,shadnagar,2,17.0765926,78.2067608
1778,prakash nagar begumpet,2,17.4444022,78.467713
887,injapur neeladri nagar ibrahimpatnam road,2,17.432110274842767,78.44455461685534
2266,srr river view,2,17.432110274842767,78.44455461685534
1134,kondakal,2,17.432110274842767,78.44455461685534
2345,telecom nagar gachibowli,2,17.4270377,78.3688058
1266,lower tank bund nh 7,2,17.4162548,78.485716
93,alkapuri colony,2,17.3691561,78.5473917
1735,phase 5th kphb,2,17.4883615,78.3847057
1786,prashanti nagar new nallakunta,2,17.432110274842767,78.44455461685534
2315,surya nagar toli chowki,2,17.432110274842767,78.44455461685534
348,bn reddy nagar,2,17.462147,78.5921097
582,edulabad main road,2,17.432110274842767,78.44455461685534
2581,yadagirigutta,2,17.432110274842767,78.44455461685534
1343,manneguda,2,17.432110274842767,78.44455461685534
394,champapet koti,2,17.432110274842767,78.44455461685534
1211,laxmi nagar colony kothapet,2,17.3703933,78.5413841
277,basti nabi kareem,2,17.432110274842767,78.44455461685534
863,ida uppal,2,17.3996897,78.5555074
858,hyder shah kote chevella road,2,17.432110274842767,78.44455461685534
1416,miyapur road,2,17.4929361,78.3525923
1323,mamatha nagar colony,2,17.432110274842767,78.44455461685534
705,gopal nagar colony,2,17.432110274842767,78.44455461685534
1777,pragathi nagar road,2,17.5019359,78.3950345
1558,new gayatri nagar jillalguda,2,17.432110274842767,78.44455461685534
2397,tirumalagiri,2,17.4746717,78.5069513
103,alwal road,2,17.5087546,78.5037695
256,bandlaguda,2,17.3714879,78.5727265
1654,p janardhan reddy nagar gachibowli outer ring road,2,17.432110274842767,78.44455461685534
933,jeedimetla,2,17.519687,78.4468876
859,hyderguda,2,17.4012791,78.4804894
1338,manikonda road,2,17.4079066,78.3933523
247,balanagar,2,17.4768224,78.4219645
921,jawahar nagar,2,17.4076626,78.4928021
841,hubsiguda tharnaka,2,17.432110274842767,78.44455461685534
1729,phase 2 hitec city,2,17.4508058,78.3834535
418,cheeriyal,2,17.432110274842767,78.44455461685534
2432,uppal main road,2,17.4072281,78.5564622
2403,toli chowki,2,17.432110274842767,78.44455461685534
1314,mallapur,2,17.4405369,78.5788551
2073,saraswathi nagar hastinapuram,2,17.432110274842767,78.44455461685534
427,cherlapalli,2,17.4590351,78.6043469
2062,sankruthinivas,2,17.432110274842767,78.44455461685534
1326,mamidipalli,2,17.432110274842767,78.44455461685534
2405,tps colony secunderabad,2,17.432110274842767,78.44455461685534
989,kakatiya hills vasanth nagar colony,2,17.432110274842767,78.44455461685534
1364,maruthi nagar,2,17.3138317,78.5779533
2574,whitefields,2,17.4543363,78.36589
2075,sardar patel colony,2,17.4431269,78.4893065
500,dd colony amberpet,2,17.3991568,78.5172264
2513,vijayapuri colony tarnaka,2,17.432110274842767,78.44455461685534
47,adibatla towers,2,17.432110274842767,78.44455461685534
1853,raj laxmi colony,2,17.432110274842767,78.44455461685534
1882,rameshwar banda,2,17.432110274842767,78.44455461685534
1648,ou colony shaikpet,2,17.4037027,78.3934473
645,ganesh nagar ragannaguda,2,17.432110274842767,78.44455461685534
1394,medipally,2,17.4158985,78.6018454
1030,kanajiguda,2,17.4898895,78.4979424
2028,sai nagar nagole,2,17.3654011,78.5601025
2214,sindhi colony begumpet,2,17.4412194,78.481048
154,appa junction area,2,17.432110274842767,78.44455461685534
2097,satyam enclave komapally nh 7,2,17.432110274842767,78.44455461685534
748,gurram guda,2,17.432110274842767,78.44455461685534
1077,kavadiguda nh 7,2,17.4227022,78.4917695
1048,kanchan bagh,2,17.3401943,78.5099445
1679,panchavati colony new bowenpally,2,17.432110274842767,78.44455461685534
1432,moon and lucky home,2,17.432110274842767,78.44455461685534
1727,phase 1 sai nagar,2,17.3345014,78.57923
1105,kings colony nawab saheb kunta,2,17.432110274842767,78.44455461685534
39,adarsh nagar serilingampalle m,2,17.4835578,78.3213131
2076,sardar patel nagar kukatpally,2,17.467749,78.42904
1790,prem nagar bolarum,2,17.432110274842767,78.44455461685534
2559,walker town padmarao nagar,2,17.432110274842767,78.44455461685534
1022,kamalanagar moula ali,2,17.432110274842767,78.44455461685534
155,apurupa colony suraram,2,17.432110274842767,78.44455461685534
1511,narsinghi,2,17.432110274842767,78.44455461685534
527,digwal,2,17.432110274842767,78.44455461685534
1775,pragathi colony meerpet,2,17.432110274842767,78.44455461685534
732,gudi malkapur mehdipatnam,2,17.3840114,78.4389701
1315,mallapur balapur,2,17.432110274842767,78.44455461685534
1914,renuka yellamma colony,2,17.432110274842767,78.44455461685534
1223,lingampally serilingampalle,2,17.4835964,78.3156251
179,as raju nagar vivekananda nagar,2,17.4929647,78.4046635
2129,shaikpet road,2,17.4003562,78.4136737
1879,ramanthapur nh 2 2,2,17.432110274842767,78.44455461685534
1383,mayuri nagar miyapur,2,17.5116535,78.3676991
2167,shirdi sai nagar manikonda,2,17.432110274842767,78.44455461685534
127,anandbagh secunderabad moula ali road,2,17.432110274842767,78.44455461685534
1418,mla colony banjara hills,2,17.414273,78.4211889
2293,sun city bandlaguda chevella road,2,17.432110274842767,78.44455461685534
633,gachibowli road,2,17.4929361,78.3525923
1938,rock town colony,2,17.3580492,78.5604086
197,athvelly,2,17.432110274842767,78.44455461685534
1652,p and t colony boduppal,2,17.432110274842767,78.44455461685534
2020,sahebnagar kalan,2,17.432110274842767,78.44455461685534
1616,old nallakunta,2,17.432110274842767,78.44455461685534
578,east marredpally,2,17.4469418,78.5107535
1496,nandagiri hills jubilee hills,2,17.4272339,78.4057497
2390,thumkunta,2,17.5643539,78.5517143
2258,srinagar colony yousufguda,2,17.4298632,78.4259077
1205,lanco hills road,2,17.432110274842767,78.44455461685534
2081,saroor nagar east saroornagar nh 9,2,17.3564017,78.5318948
2284,subhash nagar tirumalagiri,2,17.432110274842767,78.44455461685534
2137,shankarpalle,2,17.432110274842767,78.44455461685534
2289,sudarshan nagar colony,2,17.4693389,78.332565
1199,lakshmi nagar colony-hanuman nagar colony,2,17.432110274842767,78.44455461685534
781,hayathnagar khalsa,2,17.3305743,78.5738239
2435,uppuguda,2,17.340814,78.4841834
1733,phase 3 kphb,2,17.4925222,78.3966663
1215,lecturers colony,2,17.3326773,78.5944473
512,devender nagar mahadevpur colony,2,17.5272678,78.4155723
2253,sreenagar,2,17.432110274842767,78.44455461685534
1708,pbr estate boiguda,2,17.432110274842767,78.44455461685534
1191,lakdikapul nh 9,2,17.4031045,78.4658813
922,jawahar nagar chikkadpally,2,17.4047325,78.5015732
981,kachiguda nh 2 2,2,17.432110274842767,78.44455461685534
717,goutham nagar secunderabad,2,17.432110274842767,78.44455461685534
2567,west marredpally,2,17.45121,78.5020964
2343,tejaswi nagar,2,17.363838,78.4331791
1509,narendra nagar colony,2,17.3709313,78.5407574
226,aziz nagar,2,17.4798486,78.4304096
1213,laxmi starch colony tarnaka,2,17.432110274842767,78.44455461685534
1218,lenin nagar meerpet,2,17.432110274842767,78.44455461685534
453,chitrapuri colony narayanguda,2,17.432110274842767,78.44455461685534
2505,vidyanagar new nallakunta,2,17.4052787,78.5161561
207,av nagar turkayamjal,2,17.432110274842767,78.44455461685534
1395,meerpet,2,17.4546432,78.5715499
249,balapur badangpet road,2,17.3252638,78.5269105
1846,railapur,2,17.432110274842767,78.44455461685534
1309,malakpet nh 9,2,17.3736706,78.4996484
389,central excise colony amberpet,2,17.3983274,78.5125609
2596,yousufguda nh 9,2,17.4387499,78.4279866
1263,lothukunta,2,17.432110274842767,78.44455461685534
961,jupiter colony tirumalagiri,2,17.432110274842767,78.44455461685534
235,baghmankhal,2,17.432110274842767,78.44455461685534
1787,prashasan nagar,2,17.421479,78.4016482
1066,karkhana,2,17.4732138,78.5115017
1661,padmarao nagar main road,2,17.432110274842767,78.44455461685534
1560,new malakpet,2,17.3688126,78.5131912
800,hill colony vanasthalipuram,2,17.432110274842767,78.44455461685534
2164,shilpa valley serilingampally,2,17.432110274842767,78.44455461685534
325,bihar,2,17.432110274842767,78.44455461685534
2260,srinivasa nagar west ameerpet nh 9,2,17.432110274842767,78.44455461685534
505,defence colony sainikpuri,2,17.4903505,78.5414336
1379,mayur marg,2,17.432110274842767,78.44455461685534
894,ismailkhanguda,2,17.432110274842767,78.44455461685534
1939,rodamestri nagar,2,17.432110274842767,78.44455461685534
304,bhagyanagar colony madhapur,2,17.432110274842767,78.44455461685534
1785,prasanth nagar miyapur,2,17.5038611,78.3528734
2102,sbh colony,2,17.4721064,78.5060831
1710,peeramcheru,2,17.432110274842767,78.44455461685534
1320,mallikarjuna colony,2,17.5089188,78.3049621
69,agrl colony hastinapuram,2,17.432110274842767,78.44455461685534
701,golden tulip estate kondapur,2,17.432110274842767,78.44455461685534
2262,srisailam highway,2,17.3186656,78.4797897
771,haripuri colony,2,17.362825,78.5526035
663,geetha nagar,2,17.368732,78.5667645
318,bhoodevinagar,2,17.432110274842767,78.44455461685534
1392,medchal road,2,17.4048317,78.5537665
1146,kousalya colony,2,17.432110274842767,78.44455461685534
149,anupama homes manikonda,2,17.432110274842767,78.44455461685534
1369,mathrusree nagar,2,17.432110274842767,78.44455461685534
190,ashwin sheth edmont aurelia kandivali west,3,19.075558173937676,72.9093065141643
689,godrej trilogy seafront worli,3,19.075558173937676,72.9093065141643
750,gurukrupa alaknanda juhu,3,19.075558173937676,72.9093065141643
400,chandak greenairy borivali east,3,19.075558173937676,72.9093065141643
1743,piramal aranya  byculla,3,18.9783965,72.8407472
2145,shapoorji np 1.2 kandivali east,3,19.075558173937676,72.9093065141643
1520,navkarmik shiv jaya borivali east,3,19.075558173937676,72.9093065141643
216,avhad oasis dadar west,3,19.075558173937676,72.9093065141643
362,bp infra dps vista borivali,3,19.075558173937676,72.9093065141643
684,godrej sky shore andheri west,3,19.075558173937676,72.9093065141643
2447,vaidya west world harmony andheri east,3,19.075558173937676,72.9093065141643
1171,kumar vibe mangrove goregaon west,3,19.075558173937676,72.9093065141643
1909,regent priyadarshani vile parle east,3,19.075558173937676,72.9093065141643
1901,raymond invictus by gs bandra east,3,19.075558173937676,72.9093065141643
2295,sunbeam heights andheri west,3,19.075558173937676,72.9093065141643
1944,roswalt raya chembur,3,19.075558173937676,72.9093065141643
2324,swaroop grandeur andheri west,3,19.075558173937676,72.9093065141643
2206,siddhivinayak unique estate mira road east,3,19.075558173937676,72.9093065141643
2578,wmi ashford regal bhandup west,3,19.075558173937676,72.9093065141643
34,adani linkbay residences andheri west,3,19.075558173937676,72.9093065141643
1248,lodha park worli,3,19.075558173937676,72.9093065141643
2016,sahakar excel acropolis bandra east,3,19.075558173937676,72.9093065141643
1920,rishabraj avyaana goregaon west,3,19.075558173937676,72.9093065141643
2407,transcon auris serenity malad west,3,19.075558173937676,72.9093065141643
1984,ruparel vivanza byculla east,3,19.075558173937676,72.9093065141643
1225,lodha acenza andheri east,3,19.075558173937676,72.9093065141643
30,ace rushi vihar nx virar east,3,19.075558173937676,72.9093065141643
2317,sushanku avenue 37 goregaon west,3,19.075558173937676,72.9093065141643
1130,kolte patil vivere goregaon west,3,19.075558173937676,72.9093065141643
1978,runwal woods chembur,3,19.075558173937676,72.9093065141643
2191,shree siddhivinayak park abode shivaji park,3,19.075558173937676,72.9093065141643
1237,lodha divino matunga east,3,19.075558173937676,72.9093065141643
65,agarwal floresta oak goregaon east,3,19.075558173937676,72.9093065141643
829,horizon heights vasai east,3,19.075558173937676,72.9093065141643
1300,mahindra marina64 malad west,3,19.075558173937676,72.9093065141643
321,bhoomi sagar manthan kandivali west,3,19.075558173937676,72.9093065141643
1793,prestige garden trails mira road east,3,19.075558173937676,72.9093065141643
1576,nirban avenue 1 parel,3,19.075558173937676,72.9093065141643
464,cllaro urban grandeur mira road east,3,19.075558173937676,72.9093065141643
2002,rustomjee vista bay sewri,3,19.075558173937676,72.9093065141643
79,ajmera manhattan wadala,3,19.075558173937676,72.9093065141643
2,127 raj home mira road east,3,19.075558173937676,72.9093065141643
1547,neo smile belmonte corner  borivali west,3,19.075558173937676,72.9093065141643
1401,mesacon magic carpet andheri west,3,19.075558173937676,72.9093065141643
691,godrej vistas vikhroli,3,19.075558173937676,72.9093065141643
1423,modis rashmi signature malad west,3,19.075558173937676,72.9093065141643
1250,lodha riservo vikhroli west,3,19.075558173937676,72.9093065141643
1985,ruparel westsky kandivali west,3,19.075558173937676,72.9093065141643
608,esto arkis versova andheri west,3,19.075558173937676,72.9093065141643
466,codename starlife mira road east,3,19.075558173937676,72.9093065141643
1943,romell espalier vile parle east,3,19.075558173937676,72.9093065141643
2334,tania willows vasai east,3,19.075558173937676,72.9093065141643
2237,sobha inizio parel,3,19.075558173937676,72.9093065141643
331,birla niyaara worli,3,19.075558173937676,72.9093065141643
1745,piramal revanta mulund west,3,19.1667236,72.9348159
183,ashford royale mulund west,3,19.075558173937676,72.9093065141643
2194,shreeji sai divine kandivali west,3,19.075558173937676,72.9093065141643
2185,shree mahavir park altezza andheri west,3,19.075558173937676,72.9093065141643
2171,shivani rudram kandivali west,3,19.075558173937676,72.9093065141643
998,kalpataru amare juhu,3,19.075558173937676,72.9093065141643
1571,nicco residency jogeshwari vikhroli link road,3,19.075558173937676,72.9093065141643
974,kabra embraze ghatkopar east,3,19.075558173937676,72.9093065141643
703,goldmist chs ltd kandivali east,3,19.075558173937676,72.9093065141643
2188,shree ram krishna garden mira road east,3,19.075558173937676,72.9093065141643
1849,raj akshay mira road area,3,19.075558173937676,72.9093065141643
1007,kalpataru one wing a worli,3,19.075558173937676,72.9093065141643
1836,raheja modern vivarea mahalakshmi,3,19.075558173937676,72.9093065141643
1808,puravankara purva estrella andheri west,3,19.075558173937676,72.9093065141643
1036,kanakia beverly heights bhayandar east,3,19.075558173937676,72.9093065141643
1795,prestige ocean towers charni road,3,19.075558173937676,72.9093065141643
478,crest parkview bandra west,3,19.075558173937676,72.9093065141643
125,ananda blossom bld 6 wing c and d vasai west,3,19.075558173937676,72.9093065141643
308,bharat altavista andheri west,3,19.075558173937676,72.9093065141643
1830,raheja antares kanjurmarg,3,19.075558173937676,72.9093065141643
1336,manglam rajanigandha borivali west,3,19.075558173937676,72.9093065141643
997,kalpataru advay borivali west,3,19.075558173937676,72.9093065141643
2019,sahakar vogue77 goregaon west,3,19.075558173937676,72.9093065141643
1971,runwal pinnacle mulund west,3,19.075558173937676,72.9093065141643
519,dhanani shree krishna powai,3,19.075558173937676,72.9093065141643
532,dlf the westpark andheri west,3,19.075558173937676,72.9093065141643
870,india bulls sky forest lower parel,3,19.075558173937676,72.9093065141643
557,dotom hilton borivali west,3,19.075558173937676,72.9093065141643
2156,sheth 72 west andheri west,3,19.075558173937676,72.9093065141643
808,hiranandani empress hill powai,3,19.075558173937676,72.9093065141643
5,25 downtown mahalakshmi,3,19.075558173937676,72.9093065141643
1302,mahindra vista kandivali east,3,19.075558173937676,72.9093065141643
1233,lodha bellevue byculla,3,18.9777906,72.8281952
679,godrej horizon wadala,3,19.075558173937676,72.9093065141643
101,altavia goregaon west,3,19.075558173937676,72.9093065141643
1903,raymond the address by gs wadala,3,19.075558173937676,72.9093065141643
1990,rustomjee crown phase ii prabhadevi,3,19.075558173937676,72.9093065141643
1924,rivali park moonrise borivali east,3,19.075558173937676,72.9093065141643
1963,runwal avenue kanjurmarg east,3,19.075558173937676,72.9093065141643
173,artha 38 avenue goregaon west,3,19.075558173937676,72.9093065141643
2366,the wadhwa artek park bandra,3,19.075558173937676,72.9093065141643
2446,vaibhavlaxmi queens avenue chembur,3,19.075558173937676,72.9093065141643
1972,runwal raaya worli,3,19.075558173937676,72.9093065141643
868,impactum the great western  palghar naigaon east,3,19.075558173937676,72.9093065141643
2301,sunteck beach residences vasai west,3,19.075558173937676,72.9093065141643
1184,l and t island cove mahim,3,19.075558173937676,72.9093065141643
2363,the palace tower mira road east,3,19.075558173937676,72.9093065141643
2180,shree balaji sky avenue mira road east,3,19.075558173937676,72.9093065141643
480,crystal prime meridian ghatkopar,3,19.075558173937676,72.9093065141643
801,hill view crest oaks marol,3,19.075558173937676,72.9093065141643
187,ashray jaswanti jewel kandivali west,3,19.075558173937676,72.9093065141643
160,ariha one08 goregaon west,3,19.075558173937676,72.9093065141643
1406,micl aaradhya avaan tardeo,3,19.075558173937676,72.9093065141643
954,jp parkway jogeshwari east,3,19.075558173937676,72.9093065141643
35,adani ten bkc  bandra kurla complex,3,19.075558173937676,72.9093065141643
243,balaji heights borivali east,3,19.075558173937676,72.9093065141643
2175,shraddha elite borivali west,3,19.075558173937676,72.9093065141643
1750,platinum crest andheri west,3,19.075558173937676,72.9093065141643
1422,modirealty acacia dahisar east,3,19.075558173937676,72.9093065141643
1356,marathon monte south byculla,3,19.075558173937676,72.9093065141643
2249,spenta medius matunga,3,19.075558173937676,72.9093065141643
2292,sumit kmr param borivali west,3,19.075558173937676,72.9093065141643
2003,s d crown kandivali west,3,19.075558173937676,72.9093065141643
2043,salangpur salasar aavatar mira road east,3,19.075558173937676,72.9093065141643
530,disha elysium andheri west,3,19.075558173937676,72.9093065141643
2312,suraj park view dadar west,3,19.075558173937676,72.9093065141643
752,gurukrupa ekam andheri west,3,19.075558173937676,72.9093065141643
2462,vann by ajmera  andheri,3,19.075558173937676,72.9093065141643
2095,satviki horizon dadar,3,19.075558173937676,72.9093065141643
1013,kalpataru vienta kandivali east,3,19.075558173937676,72.9093065141643
136,aniline avanya tower a dahisar east,3,19.075558173937676,72.9093065141643
474,cosmos serenity virar west,3,19.075558173937676,72.9093065141643
469,colo color sigma garnet dadar west,3,19.075558173937676,72.9093065141643
1989,rustomjee crescent bandra west,3,19.075558173937676,72.9093065141643
2546,vraj meridian nikunj chsl  andheri,3,19.075558173937676,72.9093065141643
1824,radius 10 bkc bandra kurla complex,3,19.075558173937676,72.9093065141643
430,chheda avighna  mira bhayandar,3,19.075558173937676,72.9093065141643
1988,rustomjee 180 bayview matunga west,3,19.075558173937676,72.9093065141643
162,arihant balaji serenity mira bhayandar,3,19.075558173937676,72.9093065141643
890,inspira one bandra west,3,19.0521521,72.830938
1229,lodha aureus sewri,3,19.075558173937676,72.9093065141643
1942,romell ariana borivali west,3,19.075558173937676,72.9093065141643
212,avant heritage v jogeshwari east,3,19.075558173937676,72.9093065141643
2302,sunteck city 4th avenue goregaon west,3,19.075558173937676,72.9093065141643
1986,ruparel zinnia borivali,3,19.075558173937676,72.9093065141643
2151,shapoorji pallonji the odyssey girgaon,3,19.075558173937676,72.9093065141643
471,concrete sai swaroop chembur,3,19.075558173937676,72.9093065141643
609,ethics oliver mahim,3,19.075558173937676,72.9093065141643
573,dynamix avanya dahisar,3,19.2602267,72.8740751
214,avant park west vile parle west,3,19.075558173937676,72.9093065141643
170,arkade nest mulund west,3,19.075558173937676,72.9093065141643
12,7 mahalaxmi mahalakshmi,3,18.9844895,72.8245914
1683,paradigm alaya oshiwara,3,19.075558173937676,72.9093065141643
165,aristia andheri east,3,19.075558173937676,72.9093065141643
1991,rustomjee crown prabhadevi,3,19.0106193,72.8304973
1015,kalpataru vivant jogeshwari vikhroli link road,3,19.075558173937676,72.9093065141643
1639,one meraki chembur,3,19.075558173937676,72.9093065141643
1187,l&t elixir reserve powai,3,19.075558173937676,72.9093065141643
1454,mulund west,3,19.1719717,72.9511956
1601,oberoi sky city borivali east,3,19.2218217,72.8634596
1595,oberoi esquire goregaon east,3,19.1699546,72.8635127
1744,piramal mahalaxmi mahalakshmi,3,18.9836954,72.8267621
2496,verdent boston harbor andheri west,3,19.075558173937676,72.9093065141643
668,ghatkopar east,3,19.0833438,72.9123246
487,dadar west,3,19.0238887,72.8382236
784,hdil metropolis andheri west,3,19.075558173937676,72.9093065141643
946,joy callista andheri east,3,19.075558173937676,72.9093065141643
2517,vile parle east,3,19.1031465,72.8467877
958,juhu,3,19.1070215,72.8275275
62,agami eternity bandra east,3,19.075558173937676,72.9093065141643
614,evershine embassy andheri west,3,19.075558173937676,72.9093065141643
2103,sd aquila at sarova kandivali east,3,19.075558173937676,72.9093065141643
1224,living essence kandivali east,3,19.075558173937676,72.9093065141643
1044,kanakia silicon valley powai,3,19.1183795,72.9186163
1976,runwal symphony santacruz east,3,19.075558173937676,72.9093065141643
2176,shraddha gold crest kandivali west,3,19.075558173937676,72.9093065141643
641,ganapati baug chsl borivali west,3,19.075558173937676,72.9093065141643
682,godrej reserve kandivali east,3,19.075558173937676,72.9093065141643
2579,worli,3,19.0117388,72.8178706
1592,oberoi elysian goregaon east,3,19.1717507,72.8614487
1230,lodha aurum grande kanjurmarg east,3,19.075558173937676,72.9093065141643
49,aditya harismruti premises chs ltd borivali west,3,19.075558173937676,72.9093065141643
813,hiranandani gardens glen height powai,3,19.075558173937676,72.9093065141643
2415,trump tower worli,3,19.0051297,72.8285922
676,godrej avenue eleven mahalakshmi,3,19.075558173937676,72.9093065141643
309,bharat juhu acropolis juhu,3,19.075558173937676,72.9093065141643
1006,kalpataru magnus bandra east,3,19.0596599,72.8515415
2552,wadhwa 25 south prabhadevi,3,19.075558173937676,72.9093065141643
1835,raheja imperia i worli,3,19.075558173937676,72.9093065141643
2281,starwing i stay andheri east,3,19.075558173937676,72.9093065141643
1236,lodha casa maxima  mira road east,3,19.075558173937676,72.9093065141643
2187,shree one uttam chembur,3,19.075558173937676,72.9093065141643
1998,rustomjee prive bandra east,3,19.075558173937676,72.9093065141643
1180,kurla east,3,19.0628944,72.8825604
2361,the elements by neevia group mulund west,3,19.075558173937676,72.9093065141643
168,arkade eden malad west,3,19.075558173937676,72.9093065141643
2071,sapphire lakeside powai,3,19.075558173937676,72.9093065141643
298,bellanza phase 1 wing a b c at the prestige city mulund west,3,19.075558173937676,72.9093065141643
1183,l & t veridian at emerald isle powai,3,19.075558173937676,72.9093065141643
566,dudhwala proxima andheri east,3,19.075558173937676,72.9093065141643
451,chitralekha herritage andheri west,3,19.075558173937676,72.9093065141643
2250,spring field apartment santacruz east,3,19.075558173937676,72.9093065141643
1194,lake primrose powai,3,19.122189,72.9146178
80,ajmera manhattan wadala east,3,19.075558173937676,72.9093065141643
1604,oberoi splendor andheri east,3,19.075558173937676,72.9093065141643
264,bandra west,3,19.0583358,72.8302669
1245,lodha imperia bhandup west,3,19.075558173937676,72.9093065141643
1123,kohinoor city kurla west,3,19.0753827,72.8865551
1947,royal classic co op society andheri west,3,19.075558173937676,72.9093065141643
1838,raheja ridgewood goregaon east,3,19.075558173937676,72.9093065141643
2551,wadala east,3,19.0210175,72.8568955
1533,neelkanth valley ghatkopar east,3,19.075558173937676,72.9093065141643
2090,satgurus  rendezvous bandra west,3,19.075558173937676,72.9093065141643
1770,powai,3,19.1187195,72.9073476
1004,kalpataru estate andheri east,3,19.075558173937676,72.9093065141643
2577,windsor grande residences andheri west,3,19.075558173937676,72.9093065141643
1831,raheja ascencio raheja vihar,3,19.075558173937676,72.9093065141643
556,dotom domain shivaji nagar sahyadri nagar,3,19.075558173937676,72.9093065141643
2308,supreme boulevard deonar chembur,3,19.075558173937676,72.9093065141643
889,insignia bandra east,3,19.075558173937676,72.9093065141643
263,bandra kurla complex – bkc bandra east,3,19.0606629,72.8546797
1301,mahindra vista akurli nagar,3,19.075558173937676,72.9093065141643
804,hindu colony dadar east,3,19.075558173937676,72.9093065141643
2342,tejas chsl,3,19.075558173937676,72.9093065141643
970,k raheja residency bmc colony malad east,3,19.075558173937676,72.9093065141643
1993,rustomjee erika bandra east,3,19.075558173937676,72.9093065141643
1101,khar road,3,19.0682411,72.8400412
421,chembur,3,19.054818,72.8979713
1606,oberoi springs andheri west,3,19.075558173937676,72.9093065141643
1362,marol,3,19.1172198,72.882342
1812,pushpa bhavan azad nagar colaba,3,19.075558173937676,72.9093065141643
821,hiranandani regent hill powai,3,19.075558173937676,72.9093065141643
978,kabra tiara  mhb colony dindoshi,3,19.075558173937676,72.9093065141643
839,hs heritage mulund east,3,19.075558173937676,72.9093065141643
1345,manohar apartment bandra west,3,19.075558173937676,72.9093065141643
1902,raymond the address by gs bandra bandra east,3,19.075558173937676,72.9093065141643
2341,techton akhand  vasai,3,19.075558173937676,72.9093065141643
1530,neelam senroofs nahur east,3,19.075558173937676,72.9093065141643
658,gauri excellency charkop industrial estate,3,19.075558173937676,72.9093065141643
1234,lodha bellevue byculla west,3,18.9777906,72.8281952
1322,malvani,3,19.1814218,72.8191328
1182,l & t the gateway sewri,3,19.075558173937676,72.9093065141643
33,adani airica bhandup west,3,19.075558173937676,72.9093065141643
2515,vikhroli east,3,19.1172592,72.9355194
1045,kanakia zen world kanjurmarg east,3,19.075558173937676,72.9093065141643
1572,nicco sunder milan malad west,3,19.075558173937676,72.9093065141643
721,grand palazo prabhadevi,3,19.075558173937676,72.9093065141643
76,ajmera boulevard evershine nagar,3,19.075558173937676,72.9093065141643
2236,sobha inizio bhoiwada,3,19.075558173937676,72.9093065141643
1596,oberoi esquire yashodham,3,19.075558173937676,72.9093065141643
563,dream aspire andheri west,3,19.075558173937676,72.9093065141643
681,godrej nurture bhandup west,3,19.075558173937676,72.9093065141643
941,jivan prakash apartment matunga west,3,19.075558173937676,72.9093065141643
2147,shapoorji pallonji aubburn samata nagar thakur village,3,19.075558173937676,72.9093065141643
422,chembur camp,3,19.075558173937676,72.9093065141643
2307,supreme boulevard chembur,3,19.075558173937676,72.9093065141643
2358,the aga hall estate mazgaon,3,19.075558173937676,72.9093065141643
1037,kanakia beverly heights mira road east,3,19.075558173937676,72.9093065141643
1529,neelam senroofs mulund east,3,19.075558173937676,72.9093065141643
1303,mahindra vista lokhandwala township kandivali east,3,19.075558173937676,72.9093065141643
2125,sewri,3,18.9987796,72.8544218
169,arkade eden sunder nagar malad west,3,19.075558173937676,72.9093065141643
1834,raheja imperia 2 lower parel west,3,19.075558173937676,72.9093065141643
1628,om shree gokul,3,19.075558173937676,72.9093065141643
2325,swastik divine mulund east,3,19.075558173937676,72.9093065141643
2155,shelaji gold leaf saibaba nagar borivali west,3,19.075558173937676,72.9093065141643
1521,navrang heights sector 8 charkop,3,19.075558173937676,72.9093065141643
630,g apple padmavati heights prabhat colony,3,19.075558173937676,72.9093065141643
842,hubtown 25 south agar bazar,3,19.075558173937676,72.9093065141643
1002,kalpataru elitus mulund west,3,19.1693402,72.9389761
1443,ms om mayuresh lic housing colony,3,19.075558173937676,72.9093065141643
820,hiranandani regent hill hiranandani gardens,3,19.075558173937676,72.9093065141643
1467,n rose northern hills anand nagar dahisar east,3,19.075558173937676,72.9093065141643
1421,modi modirealty vatvriksh goregaon west,3,19.075558173937676,72.9093065141643
2177,shraddha park city mahindra colony,3,19.075558173937676,72.9093065141643
1668,pai nagar,3,19.07294,72.9066628
1638,one avighna park lower parel,3,19.075558173937676,72.9093065141643
562,dream aspire anand nagar andheri west,3,19.075558173937676,72.9093065141643
406,chandak treesourus malad west,3,19.075558173937676,72.9093065141643
164,arihant niwara sky chunabhatti,3,19.075558173937676,72.9093065141643
1038,kanakia challengers kandivali east,3,19.075558173937676,72.9093065141643
1981,ruparel jewel azad nagar parel,3,19.075558173937676,72.9093065141643
2364,the palace tower vinay nagar,3,19.075558173937676,72.9093065141643
670,ghori rathi nivera borivali east,3,19.075558173937676,72.9093065141643
401,chandak highscape city chembur,3,19.075558173937676,72.9093065141643
862,ic colony,3,19.2476667,72.8479863
560,dove at l and t realty elixir reserve powai,3,19.075558173937676,72.9093065141643
1444,ms om mayuresh lic housing colony mulund east,3,19.075558173937676,72.9093065141643
1997,rustomjee paramount khar west,3,19.0766863,72.8289869
1829,raheja amaltis sion west,3,19.075558173937676,72.9093065141643
2216,sindhi society sindhi society chembur,3,19.0510324,72.8915823
2500,viceroy prive thakur village kandivali east,3,19.075558173937676,72.9093065141643
1627,om shanti dharti heights parel,3,19.075558173937676,72.9093065141643
1549,neptune living point bhandup west,3,19.1416882,72.9303354
171,arkade nest sarvodaya nagar mulund west,3,19.075558173937676,72.9093065141643
